ID,type,city,postcode,lat,lon,rentGross,livingSpace,numberOfRooms,yearBuilt,hasBalcony,hasElevator,hasParking
4000906965,"['HOUSE', 'SINGLE_HOUSE']",Filzbach,8757,47.120461781979,9.131932311604,1980.0,82.0,3.0,2024.0,False,False,False
4000997183,"['APARTMENT', 'STUDIO']",Döttingen,5312,47.570971781977,8.256332311603,915.0,45.0,1.0,2009.0,False,True,False
4001099145,"['APARTMENT', 'FLAT']",Uster,8610,47.352411781975,8.718372311603,2270.0,88.0,3.5,2012.0,False,False,True
4001028409,"['APARTMENT', 'DUPLEX']",Kriens,6010,47.028211781976,8.301092311606,2490.0,117.0,3.5,2018.0,False,False,False
4000888461,['APARTMENT'],Benzenschwil,5636,47.247751781976,8.365612311601,2300.0,94.0,4.5,2024.0,True,True,False
4001110210,"['APARTMENT', 'FLAT']",Wetzikon ZH,8623,47.329231781971,8.820222311602,2133.0,86.0,4.5,1975.0,False,False,False
4000255237,"['APARTMENT', 'LOFT']",Murg,8877,47.112021781971,9.217332311603,2500.0,155.0,2.5,2014.0,True,False,True
4000871597,"['APARTMENT', 'FLAT']",Zürich,8052,47.423281781972,8.542262311602,3405.0,88.0,3.5,2014.0,False,False,False
4001075539,"['APARTMENT', 'FLAT']",Hägendorf,4614,47.333671781978,7.837252311601,2615.0,122.0,4.5,2024.0,True,True,True
4001146787,"['APARTMENT', 'SINGLE_ROOM']",Bülach,8180,47.519551781975,8.541402311603,1150.0,18.0,1.0,2014.0,True,True,False
3003501977,"['APARTMENT', 'FLAT']",Biberist,4562,47.181611781971,7.557832311609,1590.0,72.0,2.5,2014.0,True,True,True
4001133144,"['APARTMENT', 'DUPLEX']",St. Gallen,9015,47.406931781974,9.320232311606,2130.0,125.0,4.5,2010.0,True,False,False
4001098917,"['APARTMENT', 'FLAT']",Basel,4057,47.576141781974,7.589642311605,1210.0,38.0,1.5,2014.0,True,True,True
4001132630,"['APARTMENT', 'FLAT']",Aigle,1860,46.317161781976,6.973412311604,1590.0,60.0,2.5,2024.0,True,True,True
4001122447,"['APARTMENT', 'FLAT']",Strengelbach,4802,47.282801781974,7.934752311601,2095.0,112.0,4.5,2015.0,False,True,False
4001010764,"['APARTMENT', 'FLAT']",St. Gallen,9000,47.424561781974,9.374892311604,2100.0,103.0,3.5,2014.0,True,True,False
4001146455,"['APARTMENT', 'FLAT']",Lohn-Ammannsegg,4573,47.170701781971,7.530602311605,1760.0,83.0,3.5,2019.0,True,True,True
3001180961,"['APARTMENT', 'FLAT']",Suhr,5034,47.372881781978,8.082132311602,1140.0,26.0,1.0,2017.0,False,True,False
4000996796,"['APARTMENT', 'FLAT']",Basel,4056,47.566271781971,7.575232311601,1637.0,60.0,2.0,1936.0,True,False,False
4001075292,"['APARTMENT', 'FLAT']",Jussy,1254,46.234951781979,6.265522311608,5600.0,143.0,7.0,2024.0,False,False,True
4001074751,['APARTMENT'],Stabio,6855,45.853501781976,8.943242311601,1200.0,54.0,2.5,2023.0,True,True,False
4000931798,"['APARTMENT', 'FLAT']",Pully,1009,46.510771781974,6.657352311606,5240.0,110.0,4.5,2023.0,True,False,False
3003500636,"['APARTMENT', 'FLAT']",Stabio,6854,45.857071781971,8.941482311601,1300.0,57.0,2.5,2023.0,True,True,True
4001100927,"['APARTMENT', 'FLAT']",Romanshorn,8590,47.566161781977,9.378192311604,1740.0,86.0,3.5,2017.0,True,True,False
4001146680,"['APARTMENT', 'FLAT']",Genève,1207,46.205021781979,6.162252311601,2356.0,53.0,3.0,2016.0,False,True,True
4001075866,"['APARTMENT', 'FLAT']",Moudon,1510,46.672451781974,6.804292311601,2485.0,93.0,4.5,2024.0,True,False,False
4000475311,"['HOUSE', 'ROW_HOUSE']",Domdidier,1564,46.865071781971,7.007092311606,2470.0,102.0,4.5,2024.0,True,False,True
4000906608,"['APARTMENT', 'FLAT']",Lyss,3250,47.078191781975,7.303992311602,1845.0,93.0,3.5,2011.0,True,True,False
4001133240,"['HOUSE', 'BIFAMILIAR_HOUSE']",Oetwil am See,8618,47.270211781975,8.720422311602,3025.0,113.0,5.5,2015.0,True,False,True
4001123028,"['APARTMENT', 'FLAT']",Zürich,8003,47.373331781975,8.519422311607,3710.0,60.0,2.5,2014.0,True,True,True
4001133464,"['APARTMENT', 'FLAT']",Horgen,8810,47.259671781979,8.587972311602,1950.0,55.0,1.5,2024.0,False,True,False
4000441910,"['APARTMENT', 'FLAT']",Rohrbach,4938,47.136031781976,7.811652311609,1650.0,115.0,4.5,2019.0,True,True,True
4001010785,"['APARTMENT', 'FLAT']",St. Gallen,9000,47.424561781974,9.374892311604,1810.0,78.0,2.5,2014.0,True,True,False
4001099156,"['APARTMENT', 'FLAT']",Zürich,8057,47.402311781977,8.531102311608,3500.0,100.0,3.5,2014.0,False,False,False
4000929238,"['APARTMENT', 'FLAT']",Romanshorn,8590,47.565821781976,9.378702311601,1595.0,62.0,2.5,2017.0,False,True,False
4001132700,"['APARTMENT', 'LOFT']",Bern,3007,46.939851781978,7.440122311601,2760.0,64.0,2.5,1971.0,True,True,False
4000873185,"['APARTMENT', 'FLAT']",Zofingen,4800,47.284251781978,7.944972311609,2200.0,107.0,4.5,2010.0,True,True,True
4001100925,"['APARTMENT', 'FLAT']",Bulle,1630,46.624551781979,7.056722311602,1850.0,84.0,3.5,2017.0,False,True,True
4001110687,"['APARTMENT', 'FLAT']",Rorschach,9400,47.474681781979,9.483722311605,1460.0,63.0,2.5,2016.0,False,True,True
3002311435,"['APARTMENT', 'FLAT']",Winterthur,8404,47.509281781971,8.763432311601,4730.0,214.0,8.5,2023.0,True,True,False
4001134701,"['APARTMENT', 'FLAT']",Veyrier,1255,46.173121781977,6.183142311602,5800.0,124.0,5.0,2022.0,True,True,True
4001108937,"['APARTMENT', 'FLAT']",Matzingen,9548,47.521511781972,8.930522311601,1370.0,47.0,2.5,2024.0,False,True,True
4001099138,"['APARTMENT', 'FLAT']",Düdingen,3186,46.851971781979,7.198502311609,1705.0,97.0,3.5,1982.0,True,True,True
4001010343,"['APARTMENT', 'FLAT']",Liestal,4410,47.480221781974,7.749812311607,1760.0,68.0,2.5,2014.0,False,False,False
4001121720,"['APARTMENT', 'DUPLEX']",Höri,8181,47.506131781976,8.510432311606,3700.0,151.0,5.5,2024.0,True,True,True
4001010228,"['APARTMENT', 'FLAT']",Heimberg,3627,46.795141781975,7.604732311602,1550.0,63.0,2.5,2014.0,True,True,True
4000315274,"['APARTMENT', 'BACHELOR_FLAT']",Charmey (Gruyère),1637,46.620641781971,7.152862311601,2210.0,130.0,4.5,2014.0,True,True,True
4001135788,"['APARTMENT', 'FLAT']",Marly,1723,46.778901781973,7.154072311601,1165.0,30.0,1.5,2024.0,True,True,False
4000908506,"['APARTMENT', 'FLAT']",Zürich,8006,47.390691781976,8.545202311609,5693.0,124.0,3.5,2015.0,False,True,True
4001047282,"['APARTMENT', 'FLAT']",Höchstetten,3429,47.082831781974,7.581672311602,2280.0,142.0,2.5,1905.0,True,False,True
4001132330,"['APARTMENT', 'FLAT']",Schübelbach,8862,47.176061781978,8.939502311608,2600.0,114.0,4.5,2025.0,True,True,False
4001010784,"['APARTMENT', 'FLAT']",St. Gallen,9000,47.424561781974,9.374892311604,1740.0,71.0,2.5,2014.0,True,True,False
4001099147,"['APARTMENT', 'FLAT']",Niederrohrdorf,5443,47.425871781979,8.302192311603,1705.0,86.0,2.5,2015.0,False,True,False
109458925,"['APARTMENT', 'FLAT']",Mendrisio,6850,45.871661781971,8.978582311608,900.0,32.0,1.5,2019.0,True,True,True
4001009029,"['APARTMENT', 'DUPLEX']",Hausen am Albis,8915,47.239971781974,8.556742311606,3550.0,137.0,3.5,2020.0,True,True,True
4000888539,"['APARTMENT', 'ATTIC_FLAT']",Visp,3930,46.299971781971,7.870042311601,2407.0,105.0,4.5,2015.0,False,True,False
4000909215,"['APARTMENT', 'FLAT']",Liestal,4410,47.485961781971,7.742352311607,2120.0,91.0,3.5,2017.0,True,True,True
4001101443,"['APARTMENT', 'FLAT']",Les Evouettes,1897,46.362501781972,6.877042311609,1555.0,65.0,2.5,2020.0,True,True,True
4001047824,"['APARTMENT', 'FLAT']",Misery-Courtion,1721,46.857041781979,7.069842311603,1460.0,50.0,2.5,2023.0,True,False,True
4001012080,"['APARTMENT', 'FLAT']",Zürich,8050,47.414131781972,8.539422311607,3227.0,107.0,4.0,2005.0,True,True,False
4001009432,['APARTMENT'],Bern,3018,46.942881781977,7.398042311601,1780.0,78.0,3.5,2014.0,True,True,False
4001028393,"['APARTMENT', 'FLAT']",Männedorf,8708,47.255491781971,8.696972311604,2340.0,59.0,2.5,1862.0,False,False,False
4001132781,"['APARTMENT', 'FLAT']",Berg TG,8572,47.579041781974,9.166542311601,1800.0,96.0,3.5,2024.0,True,True,False
4000629292,"['APARTMENT', 'FLAT']",Zürich,8048,47.389871781976,8.484482311602,2703.0,48.0,2.5,2021.0,False,True,True
4000966136,['APARTMENT'],Biel/Bienne,2504,47.146441781978,7.272542311608,1895.0,57.0,2.5,2024.0,True,True,False
4000278078,"['APARTMENT', 'ATTIC_FLAT']",Aarau,5000,47.387471781973,8.038812311606,2990.0,119.0,3.5,2022.0,False,False,True
4000964673,"['APARTMENT', 'FLAT']",Monteggio,6998,45.997841781971,8.808702311603,1280.0,52.0,2.5,2014.0,False,True,False
4001088258,"['APARTMENT', 'FLAT']",Eggiwil,3537,46.874921781976,7.795812311604,1750.0,140.0,4.5,2014.0,True,True,True
4001028395,"['APARTMENT', 'FLAT']",Männedorf,8708,47.255491781971,8.696972311604,2815.0,76.0,4.5,1862.0,False,False,False
4001110191,"['APARTMENT', 'FLAT']",Estavayer-le-Lac,1470,46.787531781976,6.807452311601,2712.0,118.0,5.5,2025.0,True,True,True
4001074566,"['HOUSE', 'SINGLE_HOUSE']",Aesch BL,4147,47.475391781979,7.598052311608,4100.0,200.0,6.0,2014.0,True,False,False
4001133124,"['APARTMENT', 'FLAT']",Wil SG,9500,47.462921781977,9.051192311605,1626.0,71.0,2.5,2014.0,False,True,False
4000888548,"['APARTMENT', 'FLAT']",Grosshöchstetten,3506,46.905311781978,7.638182311608,1881.0,89.0,3.5,2013.0,False,True,False
4000704688,"['APARTMENT', 'ROOF_FLAT']",Aesch BL,4147,47.479811781977,7.600552311601,1965.0,89.0,2.5,1996.0,True,True,False
4001122445,"['APARTMENT', 'FLAT']",Uster,8610,47.349041781978,8.717552311601,2432.0,87.0,3.5,2018.0,False,False,False
4000292068,"['APARTMENT', 'FLAT']",Crissier,1023,46.546531781972,6.587532311606,2270.0,97.0,4.5,2024.0,True,True,True
4001145970,"['APARTMENT', 'FLAT']",Marly,1723,46.778901781973,7.154072311601,1025.0,29.0,1.5,2024.0,True,True,False
4001043779,"['APARTMENT', 'FLAT']",Paradiso,6900,45.991171781974,8.943162311601,1600.0,61.0,2.5,2013.0,False,True,False
4000610967,"['APARTMENT', 'FLAT']",Salgesch,3970,46.308531781978,7.580922311609,2500.0,100.0,3.5,2020.0,True,True,True
4000762031,"['APARTMENT', 'ATTIC_FLAT']",St. Margrethen SG,9430,47.453761781971,9.628132311608,2490.0,120.0,3.5,2023.0,True,True,True
4001044313,"['APARTMENT', 'FLAT']",Jona,8645,47.235511781979,8.837702311603,2840.0,80.0,3.5,2024.0,True,True,False
4001110613,"['APARTMENT', 'FLAT']",Ebnat-Kappel,9643,47.250961781979,9.163932311605,2650.0,179.0,4.5,2023.0,True,False,True
4001133462,"['APARTMENT', 'FLAT']",Horgen,8810,47.259671781979,8.587972311602,3240.0,118.0,3.5,2024.0,False,True,True
4001134994,"['APARTMENT', 'FLAT']",Bellinzona,6500,46.188301781972,9.010382311602,1350.0,50.0,2.5,2017.0,True,True,True
4000164544,"['APARTMENT', 'FLAT']",Küsnacht ZH,8700,47.320731781975,8.579412311601,2775.0,56.0,1.5,2022.0,True,False,True
4001009722,"['APARTMENT', 'FLAT']",Stein am Rhein,8260,47.658731781971,8.859152311609,1950.0,67.0,2.5,2014.0,False,False,False
4001121721,"['APARTMENT', 'FLAT']",Höri,8181,47.506131781976,8.510432311606,2050.0,53.0,2.5,2024.0,True,True,True
4001131846,"['APARTMENT', 'FLAT']",Aigle,1860,46.317161781976,6.973412311604,1480.0,63.0,2.5,2024.0,True,False,False
4001134976,"['APARTMENT', 'FLAT']",Lengnau BE,2543,47.183541781971,7.374312311603,1926.0,87.0,3.5,2014.0,True,True,True
4001074365,"['APARTMENT', 'FLAT']",Ellikon an der Thur,8548,47.564971781979,8.827822311605,2220.0,86.0,3.5,2021.0,True,True,False
4001074765,"['APARTMENT', 'FLAT']",Stabio,6855,45.845871781978,8.936722311604,1900.0,98.0,4.5,2023.0,True,True,False
4001098844,"['APARTMENT', 'FLAT']",Safenwil,5745,47.316201781972,7.968562311608,1970.0,103.0,4.5,2019.0,True,True,True
4000254675,"['APARTMENT', 'FLAT']",Stabio,6855,45.854521781977,8.944232311601,1800.0,110.0,4.5,2017.0,True,True,True
4001122948,"['APARTMENT', 'FLAT']",Kaltbrunn,8722,47.211061781977,9.036822311605,1659.0,75.0,2.5,2022.0,True,True,False
4001109464,"['APARTMENT', 'FLAT']",Füllinsdorf,4414,47.507891781976,7.721292311609,1430.0,40.0,2.5,2024.0,True,True,True
4000871809,"['APARTMENT', 'FLAT']",Vacallo,6833,45.847421781973,9.036152311608,1600.0,108.0,3.5,2014.0,True,True,False
4001110237,"['APARTMENT', 'ATTIC_FLAT']",St. Gallen,9000,47.418391781974,9.354622311609,2970.0,160.0,6.5,2006.0,False,True,False
4000706868,"['APARTMENT', 'FLAT']",Basel,4056,47.566611781978,7.576382311601,2110.0,80.0,2.0,1901.0,True,False,False
4001132350,"['APARTMENT', 'FLAT']",Bütschwil,9606,47.360321781976,9.070252311607,1630.0,88.0,4.5,2024.0,False,False,True
4001122977,"['APARTMENT', 'FLAT']",Viganello,6962,46.011181781978,8.963622311602,2100.0,100.0,3.5,2021.0,True,True,True
4001122675,"['APARTMENT', 'FLAT']",Krauchthal,3326,46.999601781975,7.562502311602,1950.0,78.0,3.5,2024.0,True,True,False
4001075291,"['APARTMENT', 'FLAT']",Jussy,1254,46.234951781979,6.265522311608,5600.0,144.0,6.0,2024.0,False,False,True
4000967473,"['APARTMENT', 'FLAT']",Oftringen,4665,47.314611781971,7.918782311608,2350.0,121.0,4.5,2014.0,True,True,False
4001028407,"['APARTMENT', 'FLAT']",Kriens,6010,47.027741781977,8.301462311601,3060.0,88.0,3.5,2018.0,False,False,False
4001076967,"['APARTMENT', 'FLAT']",Hellikon,4316,47.511801781976,7.920452311609,2150.0,86.0,3.5,2023.0,True,True,True
4000816324,"['APARTMENT', 'FLAT']",Roggwil BE,4914,47.245691781979,7.817512311609,1070.0,43.0,2.0,1963.0,False,False,True
4001135002,"['APARTMENT', 'FLAT']",Saxon,1907,46.154961781975,7.175812311602,1850.0,80.0,3.5,2014.0,True,False,True
4001111551,"['APARTMENT', 'FLAT']",Rorschach,9400,47.477731781973,9.495772311603,1460.0,70.0,2.5,2018.0,True,True,False
4000995143,"['APARTMENT', 'TERRACE_FLAT']",Füllinsdorf,4414,47.509911781971,7.720952311605,1590.0,56.0,3.5,2024.0,True,True,True
4001011043,"['APARTMENT', 'FLAT']",Gossau SG,9200,47.408281781971,9.251832311601,2365.0,91.0,3.5,2020.0,True,True,False
4001088410,"['HOUSE', 'BIFAMILIAR_HOUSE']",Langenbruck,4438,47.352111781979,7.770792311602,2500.0,140.0,3.5,1980.0,True,False,True
4001028377,"['APARTMENT', 'FLAT']",Ilanz,7130,46.773611781979,9.204132311601,2041.0,65.0,3.5,2022.0,False,False,False
4001045608,"['APARTMENT', 'STUDIO']",Volketswil,8604,47.390601781976,8.688712311604,2910.0,46.0,1.0,2023.0,False,True,True
4001133236,"['APARTMENT', 'ATTIC_FLAT']",Bern,3000,46.974981781972,7.498842311601,1870.0,44.0,2.5,2024.0,True,True,False
4000292252,"['APARTMENT', 'FLAT']",Brügg BE,2555,47.122591781972,7.276902311602,1130.0,57.0,2.5,2017.0,False,False,True
4001110218,"['APARTMENT', 'FLAT']",Winterthur,8404,47.502931781979,8.763812311601,2506.0,94.0,3.5,2015.0,False,True,False
4001110698,"['APARTMENT', 'FLAT']",Lyss,3250,47.074961781975,7.311302311601,2160.0,85.0,3.5,2021.0,True,True,False
4001100922,"['APARTMENT', 'FLAT']",Adlikon b. Regensdorf,8106,47.450131781971,8.466492311609,2391.0,94.0,3.5,2015.0,False,False,False
4001132786,"['APARTMENT', 'FLAT']",Berg TG,8572,47.579041781974,9.166542311601,2150.0,99.0,3.5,2024.0,True,True,False
4000886890,"['APARTMENT', 'FLAT']",Cugy FR,1482,46.814801781979,6.892792311601,1722.0,79.0,3.5,2014.0,False,False,True
4001030968,"['HOUSE', 'ROW_HOUSE']",Uzwil,9240,47.440481781976,9.128302311601,2600.0,133.0,5.5,1900.0,True,False,True
4001135786,"['APARTMENT', 'FLAT']",Marly,1723,46.778901781973,7.154072311601,1470.0,43.0,2.5,2024.0,True,True,False
4001133405,"['APARTMENT', 'FLAT']",Bäch SZ,8806,47.200611781976,8.723982311607,3035.0,77.0,3.5,2014.0,True,False,False
4001132782,"['APARTMENT', 'FLAT']",Berg TG,8572,47.579041781974,9.166542311601,2320.0,122.0,4.5,2024.0,True,True,False
4001009345,"['APARTMENT', 'ATTIC_FLAT']",Oberentfelden,5036,47.354811781973,8.046452311601,1850.0,70.0,2.5,2024.0,True,True,True
4001132179,"['APARTMENT', 'FLAT']",Thundorf,8512,47.546291781973,8.961282311604,1625.0,69.0,2.5,2024.0,True,True,False
4001133461,"['APARTMENT', 'FLAT']",Horgen,8810,47.259671781979,8.587972311602,3040.0,109.0,4.5,2024.0,False,True,True
4000910009,"['APARTMENT', 'FLAT']",Frenkendorf,4402,47.503531781971,7.717732311606,2250.0,91.0,3.5,2024.0,True,True,True
4001132180,"['APARTMENT', 'FLAT']",Thundorf,8512,47.546291781973,8.961282311604,1105.0,50.0,1.5,2024.0,True,True,False
4001075413,"['APARTMENT', 'FLAT']",Reinach BL,4153,47.491441781975,7.594442311603,3150.0,113.0,4.5,2014.0,True,True,True
4001110212,"['APARTMENT', 'FLAT']",Winterthur,8404,47.503281781974,8.763132311603,2307.0,103.0,4.5,2015.0,False,True,False
4001110190,"['APARTMENT', 'FLAT']",Estavayer-le-Lac,1470,46.787531781976,6.807452311601,2712.0,118.0,5.5,2025.0,True,True,True
4001047823,"['APARTMENT', 'FLAT']",Misery-Courtion,1721,46.857041781979,7.069842311603,1460.0,52.0,2.5,2023.0,True,False,True
4000163595,"['APARTMENT', 'TERRACE_FLAT']",Genestrerio,6852,45.851351781971,8.956542311605,1850.0,85.0,3.5,2023.0,True,True,True
4001062822,"['APARTMENT', 'ATTIC_FLAT']",Estavayer,1489,46.803001781976,6.812902311606,1870.0,102.0,3.5,2024.0,True,False,True
4000911223,"['APARTMENT', 'FLAT']",Lausanne,1003,46.517881781974,6.632812311604,3180.0,79.0,3.5,2023.0,False,True,False
4001010448,"['APARTMENT', 'FLAT']",Aesch,4147,47.479751781977,7.598162311601,1871.0,76.0,3.0,1996.0,True,True,False
4000744811,"['APARTMENT', 'FLAT']",La Chaux-de-Fonds,2300,47.089271781977,6.807762311603,970.0,45.0,2.5,2014.0,False,True,False
4000929241,"['APARTMENT', 'FLAT']",Aesch,4147,47.479571781979,7.598192311605,2327.0,108.0,4.5,1996.0,True,True,False
4001077223,"['APARTMENT', 'FLAT']",Lotzwil,4932,47.191611781979,7.790112311602,2050.0,135.0,4.5,2014.0,True,True,False
3002948624,"['APARTMENT', 'FLAT']",Collina d'Oro,6926,45.982991781973,8.916892311602,3100.0,106.0,3.5,2014.0,False,True,True
4001110761,"['APARTMENT', 'FLAT']",Hochdorf,6280,47.171041781979,8.293522311609,2150.0,100.0,3.5,2017.0,True,True,False
4001111456,"['APARTMENT', 'FLAT']",Boniswil,5706,47.315441781977,8.187222311605,1890.0,90.0,3.5,2014.0,True,True,False
4000835413,"['APARTMENT', 'TERRACE_FLAT']",Avry,1754,46.784781781974,7.069962311607,2710.0,125.0,4.5,2021.0,True,True,True
4000996564,"['APARTMENT', 'FLAT']",Wiler b. Utzenstorf,3428,47.149221781972,7.557292311608,1880.0,110.0,4.5,2017.0,True,False,True
4001077386,"['APARTMENT', 'FLAT']",Wengi b. Büren,3251,47.082931781974,7.396252311606,1149.0,30.0,2.0,2024.0,False,False,True
3003135219,['APARTMENT'],Bern,3014,46.968421781971,7.463902311607,1880.0,55.0,2.5,2020.0,True,True,False
4001133709,"['APARTMENT', 'FLAT']",Zürich,8037,47.398671781975,8.523602311603,3400.0,105.0,2.5,2017.0,True,True,False
4000888251,"['APARTMENT', 'FLAT']",Rombach,5022,47.402901781972,8.046122311601,2950.0,120.0,4.5,2022.0,True,False,True
4001133467,"['APARTMENT', 'FLAT']",Horgen,8810,47.259671781979,8.587972311602,2460.0,70.0,2.5,2024.0,False,True,False
4001132369,"['APARTMENT', 'FLAT']",Schübelbach,8862,47.176061781978,8.939502311608,2090.0,91.0,3.5,2025.0,True,True,False
4001133534,"['APARTMENT', 'ATTIC_FLAT']",Safenwil,5745,47.316201781972,7.968562311608,2740.0,118.0,5.5,2020.0,True,True,False
4001122949,"['APARTMENT', 'FLAT']",Kaltbrunn,8722,47.211061781977,9.036822311605,1983.0,99.0,3.5,2022.0,True,True,False
4000799635,"['APARTMENT', 'FLAT']",Dübendorf,8600,47.397271781977,8.601042311606,4950.0,147.0,4.5,2024.0,True,True,False
4001121601,"['APARTMENT', 'FLAT']",Bülach,8180,47.526621781971,8.539512311601,2790.0,98.0,3.5,2019.0,True,True,False
4001123580,"['APARTMENT', 'FLAT']",Kloten,8302,47.464431781972,8.582232311602,2710.0,78.0,3.5,2023.0,True,True,True
4001133460,"['APARTMENT', 'FLAT']",Horgen,8810,47.259671781979,8.587972311602,2190.0,55.0,2.5,2024.0,False,False,False
4001062220,"['APARTMENT', 'FLAT']",Frick,5070,47.506891781974,8.022302311605,2140.0,95.0,3.5,2024.0,True,True,False
4001133466,"['APARTMENT', 'FLAT']",Horgen,8810,47.259671781979,8.587972311602,2110.0,54.0,2.5,2024.0,False,True,False
4001087726,"['APARTMENT', 'TERRACE_FLAT']",Mies,1295,46.300291781971,6.170702311605,2200.0,45.0,2.0,2014.0,True,False,True
3001211665,"['APARTMENT', 'ATTIC_FLAT']",Charmey (Gruyère),1637,46.609831781976,7.180252311601,3140.0,208.0,5.5,2014.0,True,False,True
4001121792,"['APARTMENT', 'FLAT']",Lugano,6900,45.951171781973,8.906382311605,1970.0,115.0,4.5,2024.0,True,True,True
4001098765,"['APARTMENT', 'FLAT']",Altdorf UR,6460,46.877071781978,8.649772311602,2230.0,110.0,4.5,2024.0,True,True,True
4000795942,"['APARTMENT', 'FLAT']",Reinach BL,4153,47.497871781977,7.601912311601,3450.0,134.0,5.5,2024.0,True,True,False
3003501980,"['APARTMENT', 'FLAT']",Chambésy,1292,46.236291781977,6.148252311603,5410.0,121.0,6.5,2002.0,True,True,True
4001121719,"['APARTMENT', 'FLAT']",Höri,8181,47.506131781976,8.510432311606,2900.0,109.0,4.5,2024.0,True,True,True
4000887929,"['APARTMENT', 'FLAT']",Paradiso,6900,45.990141781972,8.950672311606,6500.0,145.0,4.5,2020.0,True,True,True
4001108936,"['APARTMENT', 'FLAT']",Matzingen,9548,47.521511781972,8.930522311601,1635.0,65.0,3.5,2024.0,False,True,True
4001132370,"['APARTMENT', 'FLAT']",Schübelbach,8862,47.175701781973,8.939892311602,3955.0,188.0,5.5,2025.0,True,True,False
4001032069,"['APARTMENT', 'FLAT']",Cully,1096,46.488261781973,6.725242311609,2220.0,84.0,3.5,2022.0,True,True,True
4001123581,"['APARTMENT', 'FLAT']",Kloten,8302,47.464431781972,8.582232311602,3275.0,93.0,4.5,2024.0,True,True,True
3003502790,"['APARTMENT', 'FLAT']",Biberist,4562,47.181481781979,7.557822311607,1395.0,65.0,2.5,2014.0,True,True,True
4001110285,"['APARTMENT', 'ATTIC_FLAT']",Zürich,8046,47.419801781971,8.500672311605,2695.0,69.0,2.5,2014.0,True,False,False
4001134954,"['APARTMENT', 'ROOF_FLAT']",Comano,6949,46.039161781979,8.955442311608,3800.0,117.0,3.5,1971.0,True,True,True
3003144871,['APARTMENT'],Oftringen,4665,47.315681781973,7.926092311603,1770.0,81.0,2.5,2014.0,True,True,False
4001061997,"['APARTMENT', 'FLAT']",Langnau im Emmental,3550,46.943901781979,7.779822311607,1600.0,80.0,3.5,2024.0,True,False,True
4001135787,"['APARTMENT', 'FLAT']",Marly,1723,46.778901781973,7.154072311601,945.0,29.0,1.5,2024.0,True,True,False
4000816323,"['APARTMENT', 'FLAT']",Roggwil BE,4914,47.245691781979,7.817512311609,1450.0,75.0,4.0,1963.0,False,False,True
4000654181,['APARTMENT'],St. Margrethen SG,9430,47.451391781973,9.635242311606,2190.0,112.0,4.5,2023.0,True,True,True
4001133864,"['APARTMENT', 'ROOF_FLAT']",Arlesheim,4144,47.495541781976,7.611112311604,2910.0,83.0,4.5,2019.0,True,True,True
4001062480,"['APARTMENT', 'FLAT']",Frick,5070,47.508731781974,8.023352311607,2040.0,85.0,3.5,2024.0,False,True,False
4001146684,"['APARTMENT', 'FLAT']",Staad SG,9422,47.480521781977,9.533032311609,2170.0,86.0,3.5,2023.0,True,True,False
4001134936,"['APARTMENT', 'FLAT']",Vacallo,6833,45.844681781971,9.033442311609,1500.0,90.0,3.5,2014.0,False,True,True
4000872190,"['APARTMENT', 'FLAT']",Windisch,5210,47.477951781976,8.215772311601,2001.0,84.0,2.5,2013.0,False,True,False
4001108935,"['APARTMENT', 'FLAT']",Matzingen,9548,47.521511781972,8.930522311601,1985.0,97.0,4.5,2024.0,False,True,True
4000911221,"['APARTMENT', 'FLAT']",Lausanne,1003,46.517881781974,6.632812311604,3665.0,102.0,4.5,2023.0,False,True,False
4001146921,"['HOUSE', 'SINGLE_HOUSE']",Goldiwil (Thun),3624,46.762711781972,7.667012311603,2600.0,180.0,6.0,2008.0,True,False,True
4000911181,"['APARTMENT', 'FLAT']",Rorschach,9400,47.473831781974,9.483822311601,2120.0,127.0,5.5,2014.0,False,False,False
4001134787,"['APARTMENT', 'DUPLEX']",Bioggio,6934,46.012961781975,8.907532311608,2000.0,120.0,4.5,2014.0,True,True,True
4001111176,"['APARTMENT', 'FLAT']",Uster,8610,47.355501781972,8.727772311601,1755.0,62.0,2.5,2024.0,True,True,False
3003138187,"['APARTMENT', 'TERRACE_FLAT']",St. Antoni,1713,46.818591781971,7.261942311609,2200.0,105.0,3.5,2014.0,True,True,False
4001074567,"['APARTMENT', 'FLAT']",Basel,4052,47.546221781975,7.612982311601,1970.0,66.0,2.5,2022.0,True,True,False
4000996294,"['APARTMENT', 'FLAT']",Mendrisio,6850,45.871711781973,8.978622311607,1500.0,62.0,3.5,2019.0,True,True,True
4001043830,"['APARTMENT', 'FLAT']",Niederweningen,8166,47.505681781974,8.375952311605,1915.0,68.0,2.5,2024.0,True,True,True
4001133605,"['APARTMENT', 'FLAT']",Pfyn,8505,47.600831781974,8.948542311607,1670.0,90.0,3.5,2015.0,True,False,True
4001099144,"['APARTMENT', 'FLAT']",Gattikon,8136,47.283731781974,8.549992311609,1500.0,46.0,2.0,1980.0,True,True,False
4001046689,"['APARTMENT', 'FLAT']",Brittnau,4805,47.260491781972,7.950042311605,1145.0,34.0,1.5,2023.0,False,True,False
4001110725,"['APARTMENT', 'FLAT']",Neftenbach,8413,47.524191781976,8.654752311608,1940.0,70.0,2.5,2014.0,True,True,False
4001031957,"['APARTMENT', 'TERRACE_FLAT']",Diemtigen,3754,46.647001781971,7.563812311606,1740.0,84.0,3.5,2024.0,True,True,False
4001132858,"['APARTMENT', 'TERRACE_FLAT']",Fully,1926,46.166231781979,7.097622311601,1500.0,64.0,2.5,2022.0,True,True,True
4001123073,"['APARTMENT', 'FLAT']",Dornach,4143,47.485491781973,7.610222311607,1790.0,88.0,3.5,1996.0,True,False,True
4001076898,"['APARTMENT', 'FLAT']",Sumiswald,3454,47.028431781972,7.744632311609,2100.0,117.0,3.5,2024.0,True,True,False
4000163659,"['APARTMENT', 'TERRACE_FLAT']",Stabio,6855,45.845871781978,8.936722311604,1850.0,85.0,3.5,2023.0,True,True,True
4000889381,"['APARTMENT', 'FLAT']",Cudrefin,1588,46.948521781974,7.027452311606,2120.0,72.0,3.5,2024.0,False,False,True
4000278058,"['APARTMENT', 'LOFT']",Langenthal,4900,47.213071781973,7.789612311608,2225.0,167.0,2.5,2008.0,False,False,False
4001121617,"['APARTMENT', 'FLAT']",Wolhusen,6110,47.058201781972,8.074422311601,1430.0,61.0,2.5,2024.0,True,True,True
4001133147,"['APARTMENT', 'FLAT']",Orbe,1350,46.720831781978,6.537402311609,1870.0,80.0,3.5,2020.0,False,False,False
4001134770,"['APARTMENT', 'FLAT']",Paradiso,6900,45.990621781972,8.943572311609,1850.0,70.0,2.5,2013.0,True,True,True
4000995297,"['APARTMENT', 'ROOF_FLAT']",Mendrisio,6864,45.878401781975,8.941142311605,1650.0,110.0,4.5,2019.0,False,True,True
4001111245,"['APARTMENT', 'FLAT']",Zürich,8048,47.386481781973,8.472882311609,2730.0,81.0,3.5,2016.0,True,True,False
4001132331,"['APARTMENT', 'FLAT']",Schübelbach,8862,47.176061781978,8.939502311608,1755.0,69.0,2.5,2025.0,True,True,False
4000911325,"['APARTMENT', 'FLAT']",Stabio,6855,45.845871781978,8.936722311604,1250.0,67.0,2.5,2024.0,True,True,False
4000995812,"['APARTMENT', 'ATTIC_FLAT']",Dietikon,8953,47.409491781975,8.403712311608,2089.0,59.0,1.5,2011.0,True,True,False
4000870147,"['APARTMENT', 'FLAT']",Thundorf,8512,47.546291781973,8.961282311604,2050.0,88.0,3.5,2024.0,True,True,False
4000929895,"['APARTMENT', 'FLAT']",Rüschegg Heubach,3154,46.771671781974,7.406152311602,1200.0,50.0,2.5,2020.0,True,False,True
4001146599,"['APARTMENT', 'TERRACE_FLAT']",Paradiso,6900,46.006461781971,8.951022311604,7000.0,150.0,4.5,2016.0,True,False,True
4001111502,"['APARTMENT', 'ATTIC_FLAT']",Männedorf,8708,47.257991781971,8.692542311601,4740.0,143.0,3.5,2023.0,False,True,False
4001123541,"['APARTMENT', 'FLAT']",Fribourg,1700,46.795151781974,7.155322311601,1745.0,90.0,3.5,2014.0,True,True,True
4001122751,"['APARTMENT', 'FLAT']",St. Gallen,9012,47.409631781979,9.365762311606,1577.0,90.0,3.5,1968.0,True,False,False
4001028396,"['APARTMENT', 'FLAT']",Hergiswil NW,6052,46.985011781973,8.303442311609,2910.0,109.0,4.5,2004.0,True,True,False
4001133247,"['APARTMENT', 'FLAT']",Kirchberg BE,3422,47.087571781973,7.583572311607,1790.0,100.0,3.5,2014.0,True,False,True
4001111288,"['APARTMENT', 'FLAT']",Burgdorf,3400,47.050391781972,7.622892311601,2184.0,96.0,3.5,2019.0,True,True,True
4001146520,"['APARTMENT', 'SINGLE_ROOM']",Zürich,8049,47.405771781975,8.494502311601,1400.0,20.0,1.5,2020.0,True,False,True
4001046719,"['APARTMENT', 'FLAT']",Mendrisio,6852,45.855421781971,8.958682311606,1600.0,72.0,3.5,2023.0,True,True,False
4001032691,"['APARTMENT', 'FLAT']",Crissier,1023,46.546631781971,6.588312311601,2600.0,95.0,3.5,2024.0,True,False,True
4000759983,"['APARTMENT', 'FLAT']",Liebefeld,3097,46.934601781976,7.424092311604,2312.0,90.0,3.5,1947.0,False,False,True
4001032276,"['APARTMENT', 'FLAT']",Veytaux,1820,46.419891781977,6.928762311605,1580.0,60.0,2.5,2014.0,False,False,False
4001032376,"['APARTMENT', 'FLAT']",Glattpark (Opfikon),8152,47.423291781979,8.562142311606,2500.0,92.0,3.5,2009.0,True,True,False
4001132242,"['APARTMENT', 'DUPLEX']",Uetikon am See,8707,47.264651781973,8.680752311608,5940.0,174.0,4.5,2024.0,True,True,True
4001134097,"['APARTMENT', 'DUPLEX']",Würenlingen,5303,47.534371781975,8.254502311607,1967.0,123.0,2.5,1624.0,True,False,False
4000412834,"['APARTMENT', 'FLAT']",Stabio,6855,45.845871781978,8.936722311604,1550.0,75.0,3.5,2023.0,True,True,False
4000536089,"['APARTMENT', 'ROOF_FLAT']",Krauchthal,3326,46.998911781972,7.538812311609,2750.0,148.0,3.5,2024.0,True,True,False
4000689430,"['APARTMENT', 'FLAT']",Charmey (Gruyère),1637,46.619061781979,7.156052311601,2720.0,150.0,4.5,2014.0,True,False,True
4001077379,"['HOUSE', 'ROW_HOUSE']",Biberen,3206,46.940361781978,7.215092311601,3290.0,250.0,7.5,2025.0,True,False,True
4001132825,"['APARTMENT', 'ATTIC_FLAT']",St. Gallen,9011,47.414671781973,9.392222311602,2590.0,97.0,3.5,2020.0,True,True,False
4001099504,"['APARTMENT', 'FLAT']",Konolfingen,3510,46.879721781971,7.624472311609,2490.0,106.0,4.5,2014.0,True,False,False
4001134745,"['APARTMENT', 'FLAT']",Comano,6949,46.039161781979,8.955442311608,4500.0,134.0,4.5,2022.0,True,True,True
4001133120,"['APARTMENT', 'FLAT']",Thayngen,8240,47.751551781972,8.702052311606,1450.0,65.0,2.5,2014.0,False,True,True
4001135785,"['APARTMENT', 'FLAT']",Marly,1723,46.778901781973,7.154072311601,1670.0,49.0,2.5,2024.0,True,True,False
4001110230,"['APARTMENT', 'FLAT']",Aarau,5000,47.387281781974,8.039242311608,1090.0,35.0,1.0,1972.0,False,False,True
4001033182,"['APARTMENT', 'FLAT']",Seengen,5707,47.329421781974,8.202082311609,1630.0,64.0,2.5,2023.0,True,True,True
4001099157,"['APARTMENT', 'FLAT']",Zürich,8057,47.402471781973,8.531682311601,2751.0,69.0,2.5,2014.0,False,False,False
4001132661,"['APARTMENT', 'FLAT']",Saillon,1913,46.171301781979,7.192502311602,1340.0,50.0,2.5,2023.0,True,True,True
4001063127,"['APARTMENT', 'FLAT']",Frick,5070,47.508941781976,8.023082311603,2490.0,107.0,4.5,2024.0,True,True,False
4000630329,"['APARTMENT', 'FLAT']",Basel,4001,47.555161781971,7.589002311608,2190.0,77.0,3.0,1863.0,False,False,False
4000929242,"['APARTMENT', 'FLAT']",Aesch,4147,47.479571781979,7.598192311605,2443.0,101.0,4.0,1996.0,True,True,False
4001109599,"['APARTMENT', 'FLAT']",Staufen,5603,47.382941781977,8.168102311604,2112.0,96.0,3.5,2022.0,True,False,True
4001074736,"['APARTMENT', 'FLAT']",Balerna,6828,45.842511781973,9.010832311608,1560.0,99.0,3.5,2023.0,True,True,True
4001077576,"['APARTMENT', 'FLAT']",Möhlin,4313,47.561741781975,7.839582311605,2950.0,116.0,4.5,2024.0,True,True,True
4000514052,"['APARTMENT', 'FLAT']",Basel,4053,47.540431781976,7.594482311609,1030.0,30.0,1.5,1968.0,False,True,False
4000887859,"['APARTMENT', 'ATTIC_FLAT']",Au ZH,8804,47.248121781973,8.630652311605,4720.0,113.0,4.5,2024.0,True,True,False
4001098472,"['APARTMENT', 'FLAT']",Bern,3014,46.960551781977,7.454832311603,1810.0,50.0,2.0,2014.0,False,True,False
4000163687,"['APARTMENT', 'TERRACE_FLAT']",Novazzano,6883,45.843031781978,8.979312311609,1850.0,85.0,3.5,2023.0,True,True,True
4001110657,"['APARTMENT', 'FLAT']",Oberembrach,8425,47.487311781971,8.630392311603,2480.0,87.0,3.5,2024.0,True,False,False
4001044134,"['APARTMENT', 'DUPLEX']",Basadingen-Schlattingen,8254,47.669181781977,8.749002311607,2380.0,104.0,4.5,2024.0,True,True,False
4000163581,"['APARTMENT', 'TERRACE_FLAT']",Mendrisio,6850,45.874471781972,8.980632311607,1850.0,85.0,3.5,2023.0,True,True,True
4001133125,"['APARTMENT', 'FLAT']",Wil SG,9500,47.462821781978,9.051582311605,1972.0,92.0,3.5,2014.0,True,True,False
4000997903,"['APARTMENT', 'FLAT']",Chiasso,6830,45.834931781971,9.027022311602,1780.0,125.0,4.5,2020.0,False,True,True
3003537105,"['APARTMENT', 'FLAT']",Grenchen,2540,47.198291781975,7.407452311601,2100.0,96.0,3.5,2022.0,True,True,True
4000163661,"['APARTMENT', 'TERRACE_FLAT']",Chiasso,6830,45.833041781972,9.024792311608,1850.0,85.0,3.5,2023.0,True,True,True
4000911189,"['APARTMENT', 'FLAT']",Niederglatt ZH,8172,47.491591781974,8.505032311609,1722.0,52.0,2.5,2006.0,False,True,False
4001008055,"['APARTMENT', 'ROOF_FLAT']",Saxon,1907,46.138161781972,7.189622311609,1450.0,57.0,2.5,2024.0,True,True,True
4001143945,"['APARTMENT', 'FLAT']",Habsburg,5245,47.463121781977,8.185682311604,1910.0,72.0,3.5,2015.0,True,False,False
4001128963,"['APARTMENT', 'FLAT']",Schwende,9057,47.271181781978,9.379662311601,3120.0,141.0,4.5,2024.0,True,True,True
4001143869,"['APARTMENT', 'FLAT']",Lyss,3250,47.079311781973,7.297462311608,2000.0,88.0,3.5,2024.0,True,True,True
4001131186,"['APARTMENT', 'FLAT']",Zürich,8004,47.377381781971,8.515142311608,2880.0,74.0,3.5,1895.0,False,False,False
4001152055,"['APARTMENT', 'FLAT']",Rorbas,8427,47.536141781975,8.585542311601,1600.0,57.0,2.5,1977.0,True,False,True
4000676409,"['APARTMENT', 'FLAT']",Milvignes,2013,46.966181781971,6.860622311605,2533.0,140.0,5.5,2014.0,True,False,False
4001151847,"['APARTMENT', 'STUDIO']",Ferenbalm,3206,46.960181781971,7.209222311604,1230.0,70.0,2.5,1992.0,True,False,True
4001150803,"['APARTMENT', 'FLAT']",Zürich,8049,47.404821781971,8.498802311601,3750.0,60.0,2.0,1976.0,True,False,True
4001150467,"['APARTMENT', 'FLAT']",Murten,3280,46.926241781973,7.114672311601,2270.0,91.0,4.5,1928.0,True,False,False
4001149806,"['APARTMENT', 'FLAT']",St. Gallen,9014,47.407311781978,9.334452311601,1700.0,85.0,4.5,1908.0,True,False,True
4000824724,"['APARTMENT', 'FLAT']",Wiedlisbach,4537,47.251731781977,7.650592311603,1880.0,122.0,3.5,2022.0,True,False,True
4001141621,"['APARTMENT', 'FLAT']",Burgdorf,3400,47.062361781979,7.621502311604,1900.0,73.0,3.5,2024.0,True,True,False
4001149513,"['APARTMENT', 'FLAT']",Liebistorf,3213,46.908671781971,7.194462311608,2020.0,110.0,4.5,2017.0,True,True,True
4001148887,"['APARTMENT', 'FLAT']",Uerzlikon,8926,47.223761781971,8.496982311602,3200.0,137.0,5.5,2024.0,True,True,False
4000874651,"['APARTMENT', 'FLAT']",Oberägeri,6315,47.136521781979,8.614392311602,3290.0,60.0,2.5,2024.0,True,True,False
4001137264,"['HOUSE', 'BIFAMILIAR_HOUSE']",Eggiwil,3537,46.875891781979,7.793872311605,2490.0,172.0,6.5,2024.0,True,False,True
4001147869,"['APARTMENT', 'DUPLEX']",Bremgarten,5620,47.350601781975,8.333752311602,2950.0,160.0,6.5,2001.0,True,False,True
4001143890,"['APARTMENT', 'FLAT']",Langenbruck,4438,47.349561781974,7.767412311605,1485.0,66.0,2.0,1888.0,True,False,False
4001143891,"['APARTMENT', 'DUPLEX']",Langenbruck,4438,47.349561781974,7.767412311605,3150.0,211.0,4.0,1888.0,True,False,False
4001143823,"['APARTMENT', 'FLAT']",Zürich,8037,47.392711781975,8.527182311604,3480.0,68.0,3.0,1907.0,False,False,True
4001094895,"['APARTMENT', 'FLAT']",Zürich,8037,47.392711781975,8.527182311604,3390.0,64.0,3.0,1907.0,True,True,True
4001143072,"['APARTMENT', 'ROOF_FLAT']",Bolligen,3065,46.977121781978,7.497672311603,2900.0,212.0,5.5,1987.0,False,False,True
4001143069,"['HOUSE', 'SINGLE_HOUSE']",Zollikofen,3052,47.000351781974,7.457752311601,4800.0,236.0,7.5,2000.0,True,False,True
4001139833,"['APARTMENT', 'FLAT']",Rapperswil-Jona,8645,47.230181781971,8.845532311603,3840.0,109.0,4.5,2024.0,True,False,False
4001139930,"['APARTMENT', 'FLAT']",Rapperswil-Jona,8645,47.230181781971,8.845532311603,4350.0,124.0,5.5,2024.0,True,False,False
4001139831,"['APARTMENT', 'ATTIC_FLAT']",Rapperswil-Jona,8645,47.230181781971,8.845532311603,2960.0,70.0,2.5,2024.0,False,False,False
4001141666,"['APARTMENT', 'FLAT']",Zürich,8037,47.392711781975,8.527182311604,3510.0,73.0,2.5,1907.0,False,True,True
4001141337,['HOBBY_ROOM'],Burgdorf,3400,47.064281781971,7.612442311601,490.0,60.0,3.0,2014.0,False,False,False
4001136381,"['APARTMENT', 'FLAT']",St. Gallen,9008,47.452611781972,9.399172311604,1736.0,105.0,3.5,1911.0,False,False,True
4001134922,"['APARTMENT', 'FLAT']",Uzwil,9240,47.436801781976,9.132882311607,1348.0,84.0,3.5,1910.0,True,False,False
4001133495,"['APARTMENT', 'DUPLEX']",Dietikon,8953,47.408011781971,8.400122311609,3750.0,200.0,3.5,1976.0,True,True,False
3001912387,"['APARTMENT', 'FLAT']",Genève,1204,46.203731781972,6.138152311609,1992.0,23.0,1.5,2014.0,False,True,False
4000975903,"['APARTMENT', 'FLAT']",Zufikon,5621,47.350581781977,8.353802311607,1720.0,78.0,3.5,1973.0,False,False,False
4001131118,"['APARTMENT', 'FLAT']",Liestal,4410,47.475051781979,7.745482311606,1990.0,85.0,4.0,2014.0,True,False,True
4001130444,"['APARTMENT', 'DUPLEX']",Brugg AG,5200,47.485241781974,8.206372311601,2320.0,85.0,3.0,1650.0,True,False,False
4001128972,"['APARTMENT', 'ROOF_FLAT']",Basel,4057,47.572371781971,7.595232311607,1700.0,50.0,2.0,1960.0,False,False,False
4001125307,"['APARTMENT', 'FLAT']",Erlen,8586,47.547921781976,9.229042311607,1350.0,110.0,4.5,2014.0,True,False,True
4001120944,"['APARTMENT', 'FLAT']",Lyss,3250,47.078121781974,7.306482311601,1900.0,108.0,4.5,2014.0,True,True,True
4001120542,"['APARTMENT', 'BACHELOR_FLAT']",Mols,8885,47.112931781973,9.272672311608,1300.0,42.0,2.0,2000.0,True,False,True
4001120495,"['APARTMENT', 'ATTIC_FLAT']",Lugano,6900,46.004621781978,8.941842311607,2250.0,122.0,3.5,2014.0,True,True,False
4001110903,"['APARTMENT', 'FLAT']",Cortaillod,2016,46.940901781978,6.844712311604,1990.0,75.0,3.0,2013.0,True,True,True
4001109228,"['APARTMENT', 'FLAT']",Bern,3006,46.946241781974,7.471042311605,2050.0,75.0,2.5,2014.0,True,False,False
4001107934,"['APARTMENT', 'FLAT']",Solothurn,4500,47.206741781979,7.536602311605,1950.0,130.0,4.5,2014.0,False,False,False
4001102575,"['APARTMENT', 'FLAT']",Bern,3011,46.947871781973,7.454922311601,7260.0,178.0,4.5,2014.0,False,True,False
4001100472,"['APARTMENT', 'FLAT']",Worb,3076,46.929881781974,7.554172311601,2350.0,140.0,5.5,2014.0,True,False,True
4001100318,"['APARTMENT', 'FLAT']",Tramelan,2720,47.225431781974,7.100112311609,2100.0,170.0,6.0,2014.0,True,True,False
4001096412,"['APARTMENT', 'ROOF_FLAT']",Ascona,6612,46.158241781971,8.767472311607,2500.0,80.0,3.5,1869.0,True,False,True
4001096149,"['APARTMENT', 'ROOF_FLAT']",Worb,3076,46.929751781973,7.565742311601,2440.0,125.0,3.5,1930.0,True,False,True
4001094369,"['APARTMENT', 'DUPLEX']",Nottwil,6207,47.134391781971,8.112552311601,4750.0,203.0,7.0,1713.0,True,False,True
4001088311,"['APARTMENT', 'FLAT']",Neyruz,1740,46.766641781971,7.063322311601,1450.0,53.0,2.5,2019.0,True,True,True
4001025814,"['APARTMENT', 'ATTIC_FLAT']",Embrach,8424,47.507901781971,8.597022311601,2530.0,84.0,2.5,2021.0,True,True,True
4001069180,"['APARTMENT', 'DUPLEX']",St. Gallen,9000,47.419631781972,9.353292311606,1850.0,110.0,4.5,2014.0,True,False,False
4001061938,"['APARTMENT', 'ROOF_FLAT']",Bazenheid,9602,47.412691781975,9.068592311607,2075.0,116.0,4.5,2024.0,True,False,True
4001048983,"['APARTMENT', 'FLAT']",Oberbipp,4538,47.260051781971,7.665662311606,1480.0,100.0,4.5,2014.0,True,False,True
4001045592,"['APARTMENT', 'ATTIC_FLAT']",Bern,3000,46.929481781975,7.474332311602,5750.0,105.0,3.5,2022.0,True,True,True
4001025931,"['APARTMENT', 'ROOF_FLAT']",Bern,3027,46.952251781971,7.378622311608,2100.0,100.0,3.5,2014.0,False,False,False
4001011741,"['APARTMENT', 'DUPLEX']",Siegershausen,8573,47.610671781971,9.167612311602,1950.0,150.0,4.5,2014.0,True,False,True
4000888995,"['APARTMENT', 'DUPLEX']",Stettlen,3066,46.957401781973,7.532992311608,2250.0,120.0,3.5,2009.0,True,False,True
4000884668,"['APARTMENT', 'ATTIC_FLAT']",Bad Zurzach,5330,47.583261781971,8.291322311601,2750.0,170.0,9.0,1968.0,True,False,False
4000864437,"['HOUSE', 'ROW_HOUSE']",Männedorf,8708,47.261571781978,8.689142311607,4800.0,165.0,5.5,2014.0,True,False,False
4000824779,"['HOUSE', 'CHALET']",Sion,1950,46.345971781972,7.011702311603,2090.0,100.0,4.5,2014.0,True,False,True
4000766260,"['APARTMENT', 'FLAT']",Reinach BL,4153,47.492201781976,7.593372311604,2000.0,70.0,3.0,2014.0,True,False,False
4001144105,"['APARTMENT', 'ROOF_FLAT']",Bern,3005,46.941331781973,7.449982311608,2490.0,76.0,2.5,1928.0,True,False,False
4001133049,"['APARTMENT', 'FLAT']",Niederwangen BE,3172,46.926161781979,7.387602311608,2261.0,104.0,4.5,2014.0,False,True,False
4001134937,"['APARTMENT', 'FLAT']",Bassersdorf,8303,47.443601781976,8.618172311606,1412.0,74.0,2.5,1982.0,True,False,False
4001132907,"['APARTMENT', 'FLAT']",Liestal,4410,47.484611781971,7.731832311603,1636.0,70.0,2.5,2014.0,False,True,False
4001132906,"['APARTMENT', 'FLAT']",Niederwangen BE,3172,46.926161781979,7.387602311608,2261.0,104.0,4.5,2014.0,False,True,False
4001132908,"['APARTMENT', 'FLAT']",Basel,4052,47.555281781979,7.614762311609,1096.0,53.0,2.0,1961.0,False,True,False
4001099661,['APARTMENT'],Wil SG,9500,47.456911781971,9.051562311609,1370.0,62.0,3.0,2014.0,True,True,False
4001127248,"['APARTMENT', 'FLAT']",Reinach BL,4153,47.496471781972,7.594262311605,1945.0,97.0,3.5,2014.0,True,False,False
4001142388,"['HOUSE', 'SINGLE_HOUSE']",Worb,3076,46.930561781976,7.565302311604,3600.0,180.0,5.5,2014.0,True,False,True
4001101509,"['APARTMENT', 'FLAT']",Coppet,1296,46.316631781979,6.193562311601,7000.0,160.0,5.5,2014.0,True,True,False
4001142386,"['APARTMENT', 'FLAT']",Mägenwil,5506,47.414521781979,8.235552311601,2020.0,95.0,4.5,2014.0,False,False,False
4001101506,"['APARTMENT', 'FLAT']",Grenchen,2540,47.193581781972,7.395442311609,1015.0,60.0,3.0,2014.0,False,False,False
4001123773,"['APARTMENT', 'FLAT']",Bern,3027,46.952251781971,7.378622311608,1690.0,75.0,3.5,2014.0,True,False,True
4001147178,"['APARTMENT', 'FLAT']",Sissach,4450,47.461371781979,7.811852311607,2300.0,140.0,4.0,2014.0,False,False,True
4001101504,"['APARTMENT', 'DUPLEX']",Zeglingen,4495,47.417351781975,7.904312311605,1990.0,148.0,4.5,2014.0,True,True,True
4001147176,"['APARTMENT', 'FLAT']",Menziken,5737,47.238921781978,8.188112311609,2300.0,119.0,4.5,2022.0,True,True,False
4001097792,"['APARTMENT', 'FLAT']",Zweisimmen,3770,46.553531781971,7.371992311607,2900.0,160.0,6.5,2014.0,True,False,True
4001138667,"['APARTMENT', 'DUPLEX']",Liestal,4410,47.481601781978,7.739572311609,2280.0,120.0,4.5,2014.0,True,False,True
4001148401,"['APARTMENT', 'FLAT']",Berlingen,8267,47.674041781979,9.018982311601,3250.0,110.0,4.0,2014.0,False,False,False
4001119364,"['APARTMENT', 'ATTIC_FLAT']",Massagno,6900,46.013481781974,8.943192311604,6830.0,160.0,3.5,2014.0,False,True,False
4001121340,"['APARTMENT', 'FLAT']",Huttwil,4950,47.112691781971,7.849642311606,1500.0,75.0,3.5,2014.0,False,False,True
4001106898,"['APARTMENT', 'ROOF_FLAT']",Rosshäusern,3204,46.932121781973,7.275502311609,1098.0,60.0,2.0,2014.0,False,False,True
4001106897,"['APARTMENT', 'FLAT']",Sargans,7320,47.047601781975,9.440002311609,2300.0,128.0,4.5,2014.0,True,True,False
4001138663,"['APARTMENT', 'FLAT']",Attiswil,4536,47.249921781973,7.613922311602,1350.0,65.0,4.5,2014.0,True,False,True
4001142379,"['APARTMENT', 'FLAT']",Rietheim,5323,47.600601781971,8.278822311605,2900.0,135.0,4.5,2021.0,True,False,False
4001145721,"['APARTMENT', 'FLAT']",Basel,4057,47.574251781971,7.593062311609,1550.0,57.0,2.5,2014.0,False,True,False
4001148396,"['APARTMENT', 'LOFT']",Liestal,4410,47.481601781978,7.739572311609,1990.0,125.0,3.5,2014.0,False,False,False
4001148394,"['APARTMENT', 'FLAT']",Albinen,3955,46.341121781971,7.633862311601,1250.0,56.0,3.5,2014.0,True,True,True
4001123759,"['APARTMENT', 'ATTIC_FLAT']",Binningen,4102,47.541871781975,7.575032311601,2950.0,124.0,3.5,2014.0,False,True,False
4001138659,"['APARTMENT', 'FLAT']",Uetikon am See,8707,47.265971781976,8.676922311601,3455.0,103.0,4.0,2014.0,False,False,False
4001121337,"['APARTMENT', 'FLAT']",Neukirch an der Thur,9217,47.510741781977,9.172792311608,1750.0,142.0,1.0,2016.0,False,False,True
4001138657,"['APARTMENT', 'FLAT']",Bischofszell,9220,47.496401781977,9.241462311602,1380.0,85.0,3.5,2014.0,False,False,True
4001119353,"['APARTMENT', 'ROOF_FLAT']",Kaltbrunn,8722,47.215161781971,9.026982311604,1950.0,140.0,4.5,2014.0,True,False,True
4001127212,"['APARTMENT', 'FLAT']",Develier,2802,47.357261781976,7.294542311607,1000.0,90.0,4.5,2014.0,False,False,False
4001147168,"['HOUSE', 'MULTIPLE_DWELLING']",Belfaux,1782,46.820301781977,7.105232311601,2950.0,130.0,4.0,2024.0,True,False,False
4001119348,"['APARTMENT', 'FLAT']",Wasen im Emmental,3457,47.043531781974,7.797392311606,1090.0,75.0,3.0,2014.0,False,False,True
4001145718,"['APARTMENT', 'DUPLEX']",Hellbühl,6016,47.070581781971,8.199282311608,1750.0,132.0,6.0,2014.0,False,False,False
4001121336,"['APARTMENT', 'FLAT']",Zürich,8046,47.422871781976,8.514732311601,3200.0,125.0,4.5,2014.0,False,True,False
4001121334,"['APARTMENT', 'DUPLEX']",Oberwil BL,4104,47.515971781975,7.558202311601,2800.0,140.0,5.5,2014.0,True,False,False
4001138648,"['HOUSE', 'SINGLE_HOUSE']",Däniken SO,4658,47.353081781974,7.982642311602,2500.0,100.0,5.5,2014.0,False,False,True
4001108440,"['HOUSE', 'FARM_HOUSE']",Hittnau,8335,47.368971781976,8.822732311608,4950.0,330.0,6.0,2014.0,False,False,False
4001147160,"['APARTMENT', 'FLAT']",Bürglen TG,8575,47.549541781978,9.155482311606,2450.0,106.0,4.5,2014.0,True,False,True
4001101490,"['APARTMENT', 'FLAT']",La Conversion,1093,46.513081781978,6.678322311606,3500.0,120.0,4.5,2014.0,False,True,False
4001123743,"['APARTMENT', 'FLAT']",Röschenz,4244,47.424661781974,7.475942311608,1450.0,72.0,3.5,2014.0,False,False,True
4001127178,"['HOUSE', 'ROW_HOUSE']",Oberrieden,8942,47.275281781972,8.577192311603,5590.0,150.0,5.5,2014.0,False,False,False
4001127175,"['APARTMENT', 'FLAT']",Lützelflüh-Goldbach,3432,47.003721781973,7.683272311607,1400.0,60.0,3.0,2014.0,True,False,True
4001138640,"['APARTMENT', 'FLAT']",Quartino,6572,46.153471781978,8.895762311607,1630.0,120.0,3.5,2014.0,True,True,True
4001138639,"['APARTMENT', 'FLAT']",Weier im Emmental,3462,47.062041781973,7.749442311605,1520.0,76.0,2.5,2022.0,False,False,True
4001148360,"['APARTMENT', 'ATTIC_FLAT']",Liestal,4410,47.481601781978,7.739572311609,1650.0,100.0,2.5,2014.0,True,False,False
4001123736,"['APARTMENT', 'FLAT']",Kesswil,8593,47.593681781976,9.316342311601,2130.0,90.0,3.5,2023.0,False,True,False
4001097779,"['APARTMENT', 'ATTIC_FLAT']",Sörenberg,6174,46.821931781973,8.036222311605,1310.0,85.0,3.5,2019.0,True,False,False
4001142353,"['APARTMENT', 'FLAT']",Solothurn,4500,47.208651781979,7.537952311608,1710.0,90.0,3.5,2014.0,True,False,False
4001101484,"['APARTMENT', 'ROOF_FLAT']",Seedorf BE,3267,47.034951781978,7.313012311607,1990.0,101.0,3.5,2014.0,True,True,False
4001148352,"['APARTMENT', 'DUPLEX']",Nürensdorf,8309,47.448131781971,8.649262311603,3400.0,120.0,3.5,2014.0,False,False,True
4001123731,"['APARTMENT', 'FLAT']",Röschenz,4244,47.424661781974,7.475942311608,1250.0,58.0,2.0,2014.0,True,False,True
4001101483,"['APARTMENT', 'FLAT']",Meyrin,1217,46.233471781979,6.080012311603,3534.0,120.0,6.0,2014.0,True,True,True
4001119333,"['APARTMENT', 'FLAT']",Le Lieu,1345,46.646971781976,6.281072311601,1150.0,95.0,3.5,2014.0,False,False,True
4001119332,"['APARTMENT', 'FLAT']",Schindellegi,8834,47.170001781975,8.700002311601,4900.0,115.0,4.5,2019.0,True,True,False
4001138632,"['APARTMENT', 'FLAT']",Lausanne,1004,46.530031781971,6.617942311602,3100.0,85.0,4.5,2014.0,False,False,False
4001138631,"['APARTMENT', 'ATTIC_FLAT']",Buus,4463,47.506021781971,7.864642311607,2500.0,168.0,4.5,2014.0,True,False,True
4001147155,"['APARTMENT', 'FLAT']",Menziken,5737,47.238921781978,8.188112311609,2600.0,119.0,4.5,2022.0,False,True,False
4001145714,"['APARTMENT', 'FLAT']",Zürich,8049,47.404451781972,8.497032311609,3150.0,76.0,3.0,2014.0,True,False,False
4001142350,"['APARTMENT', 'FLAT']",Romanshorn,8590,47.563721781979,9.370152311606,1450.0,90.0,4.5,2014.0,True,False,True
4001119331,"['APARTMENT', 'FLAT']",Steckborn,8266,47.661841781974,8.978512311603,1600.0,103.0,3.5,2014.0,True,False,True
4001101476,"['APARTMENT', 'FLAT']",Münchwilen TG,9542,47.481131781975,8.996432311607,1910.0,66.0,3.5,2014.0,True,True,False
4001123724,"['APARTMENT', 'FLAT']",Préverenges,1028,46.518071781971,6.527522311609,2850.0,90.0,3.5,2014.0,False,True,False
4001101471,"['HOUSE', 'SINGLE_HOUSE']",Münchenstein,4142,47.518791781973,7.613912311608,3895.0,158.0,5.0,2014.0,False,False,True
4001121326,"['APARTMENT', 'FLAT']",Grindel,4247,47.381621781975,7.501532311602,1250.0,96.0,3.5,2014.0,False,False,False
4001123716,"['APARTMENT', 'FLAT']",Moudon,1510,46.669321781973,6.804412311601,1970.0,112.0,4.5,2014.0,True,True,False
4001097772,"['APARTMENT', 'ATTIC_FLAT']",Emmen,6032,47.093811781976,8.308272311603,2780.0,120.0,4.0,2014.0,True,True,True
4001108403,"['APARTMENT', 'FLAT']",Les Acacias,1227,46.190701781978,6.132762311609,3800.0,110.0,4.0,2014.0,False,False,False
4001097767,"['APARTMENT', 'FLAT']",Zürich,8006,47.388621781979,8.543992311609,5450.0,154.0,4.5,2014.0,False,False,False
4001123704,"['APARTMENT', 'FLAT']",Ennetaach,8586,47.550601781973,9.216122311601,1430.0,76.0,3.5,2014.0,False,False,False
4001115892,"['APARTMENT', 'FLAT']",Châtelaine,1219,46.211201781975,6.112262311601,3339.0,98.0,4.5,2022.0,True,True,False
4001119315,"['APARTMENT', 'DUPLEX']",Genève,1206,46.189671781979,6.157532311604,10500.0,310.0,5.0,2014.0,True,True,False
4001147137,"['APARTMENT', 'DUPLEX']",Zwillikon,8909,47.287941781977,8.430622311604,3600.0,220.0,6.5,2014.0,True,False,False
4001106867,"['APARTMENT', 'FLAT']",St. Gallen,9000,47.424521781975,9.374922311601,1330.0,52.0,2.5,2014.0,False,True,False
4001142335,"['APARTMENT', 'FLAT']",Féchy,1173,46.479371781979,6.374162311605,7390.0,245.0,6.0,2014.0,False,True,False
4001123697,"['APARTMENT', 'FLAT']",Rodersdorf,4118,47.481751781972,7.456812311601,2300.0,125.0,4.5,2014.0,False,False,False
4001108372,"['APARTMENT', 'ROOF_FLAT']",Wittnau,5064,47.480071781972,7.973532311601,1600.0,110.0,3.5,2014.0,True,False,False
4001148290,"['APARTMENT', 'FLAT']",Chiasso,6830,45.834931781971,9.027022311602,1020.0,65.0,2.5,2014.0,False,True,True
4001147131,"['APARTMENT', 'FLAT']",Zürich,8004,47.380751781978,8.517282311604,2995.0,73.0,3.0,2014.0,True,True,False
4001121324,"['APARTMENT', 'ROOF_FLAT']",L'Auberson,1454,46.817901781971,6.458932311604,1425.0,90.0,3.5,2014.0,False,False,True
4001127088,"['APARTMENT', 'FLAT']",Rorschach,9400,47.473801781974,9.492782311607,1438.0,120.0,5.5,2014.0,False,False,True
4001101455,"['APARTMENT', 'FLAT']",Pieterlen,2542,47.174561781974,7.336312311601,1295.0,87.0,3.0,2014.0,True,True,False
4001147125,"['APARTMENT', 'FLAT']",Menziken,5737,47.238921781978,8.188112311609,2300.0,119.0,4.5,2022.0,True,True,False
4001123688,"['HOUSE', 'ROW_HOUSE']",Arlesheim,4144,47.496321781974,7.617412311601,4450.0,177.0,8.0,2014.0,True,False,True
4001130950,"['APARTMENT', 'FLAT']",Suhr,5034,47.368451781971,8.079422311602,2540.0,111.0,4.5,2014.0,True,True,False
4001113661,"['APARTMENT', 'FLAT']",Zürich,8046,47.415921781979,8.516332311601,1895.0,64.0,3.0,2014.0,False,False,False
4001129496,"['APARTMENT', 'FLAT']",Fislisbach,5442,47.440991781979,8.288922311605,1400.0,54.0,2.5,1976.0,True,False,False
4001117378,"['APARTMENT', 'FLAT']",Langenthal,4900,47.205001781979,7.788292311609,2262.0,102.0,4.5,2014.0,True,True,False
4001113662,"['APARTMENT', 'FLAT']",Buchs AG,5033,47.389361781971,8.082112311605,1709.0,81.0,3.5,2014.0,True,True,False
4001130948,"['APARTMENT', 'FLAT']",Muttenz,4132,47.532281781978,7.632552311603,1697.0,59.0,2.5,2014.0,True,True,False
4001046707,"['APARTMENT', 'FLAT']",Möhlin,4313,47.555831781979,7.845062311604,1980.0,98.0,3.5,2014.0,True,True,False
4001051154,"['APARTMENT', 'FLAT']",Biel,2503,47.135681781977,7.257642311603,1449.0,69.0,3.5,1966.0,False,True,False
4001125951,"['APARTMENT', 'FLAT']",Olten,4600,47.352501781971,7.902132311606,1890.0,83.0,3.5,2014.0,True,True,False
4001129290,"['APARTMENT', 'FLAT']",Bussigny,1030,46.547411781975,6.551112311606,3950.0,132.0,5.0,2024.0,True,True,True
4000990823,"['APARTMENT', 'FLAT']",Zürich,8004,47.378861781974,8.526862311609,3190.0,65.0,3.5,2014.0,True,True,False
4001097022,"['APARTMENT', 'DUPLEX']",Rietheim,5323,47.603221781977,8.274442311606,2900.0,135.0,4.5,2006.0,True,False,True
4001058485,"['APARTMENT', 'FLAT']",Estavayer,1489,46.803001781976,6.812902311606,1770.0,89.0,3.5,2024.0,True,False,True
4001130455,"['APARTMENT', 'ATTIC_FLAT']",Bern,3018,46.940021781977,7.390332311608,1980.0,58.0,2.5,2024.0,True,False,False
4000989621,"['HOUSE', 'SINGLE_HOUSE']",Châbles FR,1474,46.825611781976,6.807782311608,3700.0,180.0,5.5,2014.0,True,False,True
4001007024,"['HOUSE', 'SINGLE_HOUSE']",Wünnewil,3184,46.874611781972,7.276172311603,2200.0,100.0,4.5,1995.0,True,False,True
4001131714,"['APARTMENT', 'FLAT']",Laufen,4242,47.423191781972,7.502292311601,2150.0,101.0,3.5,2017.0,True,True,False
4001120921,"['APARTMENT', 'FLAT']",Belp,3123,46.895251781979,7.504622311601,2130.0,96.0,4.5,2002.0,True,True,False
4001144440,"['APARTMENT', 'FLAT']",Hedingen,8908,47.300161781975,8.450802311609,2090.0,47.0,2.5,2024.0,True,True,True
4001041490,"['APARTMENT', 'DUPLEX']",Tafers,1712,46.815611781976,7.212142311603,2200.0,101.0,3.5,2021.0,True,False,True
4001144474,"['APARTMENT', 'FLAT']",Zug,6300,47.168301781975,8.521492311609,2090.0,47.0,2.5,2024.0,True,True,True
4001097431,"['APARTMENT', 'FLAT']",Münchenstein,4142,47.526131781978,7.614452311609,2370.0,80.0,3.5,2014.0,True,False,False
4000626397,"['APARTMENT', 'FLAT']",Luchsingen,8775,46.966181781974,9.033692311606,790.0,25.0,1.0,2014.0,False,False,True
3001172932,"['APARTMENT', 'FLAT']",Luchsingen,8775,46.966181781974,9.033692311606,1250.0,88.0,4.0,2014.0,False,False,False
3002966414,"['APARTMENT', 'FLAT']",Luchsingen,8775,46.970041781979,9.011702311602,1160.0,88.0,4.5,2014.0,False,False,True
4001152566,"['APARTMENT', 'FLAT']",Le Locle,2400,47.053501781976,6.752372311602,1400.0,90.0,4.5,2014.0,True,False,True
4001152476,"['APARTMENT', 'ROOF_FLAT']",Matten b. Interlaken,3800,46.674131781977,7.872862311603,2250.0,105.0,4.5,1984.0,True,False,True
4001152400,"['APARTMENT', 'FLAT']",Seewil,3256,47.050341781974,7.408852311608,1806.0,60.0,3.5,2022.0,True,True,False
4001152362,"['APARTMENT', 'FLAT']",Chur,7000,46.861141781974,9.538742311601,2200.0,96.0,4.5,1953.0,True,False,True
4001152360,"['APARTMENT', 'FLAT']",Nyon,1260,46.387471781977,6.221772311609,2740.0,93.0,3.5,2021.0,True,True,True
4001150418,"['APARTMENT', 'FLAT']",Rorschacherberg,9404,47.476861781971,9.523672311609,1270.0,57.0,2.5,2014.0,True,True,False
4001150381,"['APARTMENT', 'FLAT']",Bischofszell,9220,47.496401781977,9.241462311602,2175.0,93.0,3.5,2016.0,True,True,True
4001152347,"['APARTMENT', 'FLAT']",Genève,1206,46.195041781975,6.153542311601,4426.0,100.0,5.5,2014.0,False,True,False
4001152332,"['APARTMENT', 'FLAT']",Brügg BE,2555,47.124891781977,7.279622311608,1580.0,90.0,4.0,1897.0,False,False,True
4000644963,"['APARTMENT', 'FLAT']",Solothurn,4500,47.207051781979,7.535912311603,2480.0,100.0,3.5,1900.0,False,False,False
3003410741,"['APARTMENT', 'FLAT']",Solothurn,4500,47.207051781979,7.535912311603,2560.0,101.0,3.5,1900.0,False,False,False
3003410740,"['APARTMENT', 'FLAT']",Solothurn,4500,47.207051781979,7.535912311603,2265.0,100.0,3.5,1900.0,False,False,False
4001152237,"['APARTMENT', 'DUPLEX']",Oberbüren,9245,47.450951781974,9.164172311602,1435.0,70.0,2.5,1994.0,False,False,True
4001152192,"['HOUSE', 'SINGLE_HOUSE']",Langenthal,4900,47.203291781976,7.796312311601,2600.0,128.0,4.5,1985.0,True,False,True
4001152088,"['APARTMENT', 'FLAT']",Watt,8105,47.447521781974,8.471862311607,3200.0,126.0,4.5,2014.0,True,True,False
4001151952,"['APARTMENT', 'FLAT']",Gelterkinden,4460,47.460061781973,7.861982311601,1475.0,55.0,2.5,2024.0,True,True,False
4001151868,"['APARTMENT', 'FLAT']",Troinex,1256,46.164091781977,6.149202311607,5900.0,156.0,5.0,2024.0,True,True,True
4000974160,"['APARTMENT', 'FLAT']",Basel,4055,47.565391781979,7.562202311602,1705.0,76.0,4.0,2014.0,False,False,False
4000988441,"['APARTMENT', 'FLAT']",Biel/Bienne,2504,47.151271781978,7.272482311608,1380.0,59.0,3.0,1960.0,False,False,False
4001012076,"['APARTMENT', 'FLAT']",Pratteln,4133,47.522331781977,7.692072311601,1910.0,104.0,4.0,1947.0,True,True,False
4000962404,"['APARTMENT', 'FLAT']",Frenkendorf,4402,47.500931781977,7.717722311603,1670.0,83.0,3.5,1985.0,True,True,True
4001010388,"['APARTMENT', 'FLAT']",Allschwil,4123,47.554271781974,7.553542311605,1835.0,83.0,3.5,1985.0,False,False,False
4000960817,"['APARTMENT', 'FLAT']",Aesch BL,4147,47.474861781971,7.590712311603,1700.0,78.0,3.5,1982.0,True,True,False
4001010389,"['APARTMENT', 'FLAT']",Basel,4052,47.545351781979,7.600552311608,1612.0,61.0,3.0,1951.0,False,False,False
4001002917,"['APARTMENT', 'FLAT']",Romanshorn,8590,47.571521781974,9.367482311609,2042.0,111.0,5.5,1979.0,True,False,False
4001018118,"['APARTMENT', 'FLAT']",Biel/Bienne,2504,47.144641781974,7.275032311603,1825.0,120.0,4.5,1987.0,True,True,False
4000997187,"['APARTMENT', 'FLAT']",Fribourg,1700,46.798371781973,7.152172311601,1335.0,56.0,2.0,1940.0,True,True,True
4001015806,"['APARTMENT', 'FLAT']",Brugg AG,5200,47.478981781979,8.204432311606,1879.0,97.0,4.5,1975.0,True,True,True
4001000790,"['APARTMENT', 'FLAT']",St. Gallen,9000,47.427931781971,9.377032311609,1731.0,66.0,3.0,1920.0,False,True,False
4000994544,"['APARTMENT', 'FLAT']",Basel,4052,47.545991781972,7.601512311607,1825.0,74.0,2.5,1984.0,True,True,False
4000994547,"['APARTMENT', 'FLAT']",Aarau,5000,47.378021781971,8.057162311609,1590.0,69.0,3.0,1968.0,True,True,True
4000946241,"['APARTMENT', 'FLAT']",St. Gallen,9000,47.430461781975,9.383402311604,1240.0,67.0,2.5,1920.0,False,False,False
4000946242,"['APARTMENT', 'FLAT']",Fribourg,1700,46.809041781975,7.171782311603,650.0,20.0,1.0,1969.0,True,True,True
4001002929,"['APARTMENT', 'FLAT']",St. Gallen,9000,47.424641781971,9.381872311604,1298.0,45.0,3.0,1920.0,False,False,False
4001018115,"['APARTMENT', 'FLAT']",Biel/Bienne,2504,47.144761781971,7.274452311601,1505.0,107.0,3.5,1987.0,True,True,False
4000948196,"['APARTMENT', 'FLAT']",Lyss,3250,47.068441781975,7.300932311602,1727.0,76.0,3.5,1986.0,True,False,False
4001015818,"['APARTMENT', 'FLAT']",Basel,4056,47.569681781976,7.568402311607,1552.0,71.0,3.0,1957.0,True,True,False
4000995821,"['APARTMENT', 'FLAT']",St. Gallen,9016,47.437261781978,9.418742311605,1520.0,77.0,3.5,1979.0,True,True,True
4000994564,"['APARTMENT', 'FLAT']",Sion,1950,46.230141781976,7.365052311602,1700.0,92.0,3.5,2018.0,False,False,False
4000951262,"['APARTMENT', 'FLAT']",Fribourg,1700,46.798271781977,7.151042311604,1740.0,61.0,3.0,1930.0,True,True,True
4000991010,"['APARTMENT', 'FLAT']",Bellinzona,6500,46.188601781979,9.013362311602,1640.0,83.0,3.5,1982.0,False,True,True
4001029807,"['APARTMENT', 'FLAT']",Pratteln,4133,47.532161781979,7.709542311605,1420.0,64.0,3.5,2014.0,True,False,False
4001028387,"['APARTMENT', 'FLAT']",St. Gallen,9000,47.424841781976,9.385232311603,1530.0,83.0,3.5,1986.0,False,False,False
4001057624,"['APARTMENT', 'FLAT']",Biel/Bienne,2502,47.135271781974,7.243742311607,1630.0,80.0,3.5,1998.0,True,True,False
4001057625,"['APARTMENT', 'FLAT']",Münchenstein,4142,47.522921781976,7.616522311607,1830.0,83.0,4.0,2014.0,True,False,False
4001058535,"['APARTMENT', 'FLAT']",Basel,4057,47.564971781977,7.595692311609,1150.0,37.0,1.0,1959.0,False,False,False
4001044958,"['APARTMENT', 'FLAT']",St. Gallen,9008,47.439401781973,9.395132311603,1590.0,65.0,3.0,2014.0,False,False,False
4001022250,"['APARTMENT', 'FLAT']",Glattpark (Opfikon),8152,47.422901781976,8.564562311607,2790.0,100.0,3.5,2007.0,True,True,False
4001029803,"['APARTMENT', 'FLAT']",St. Gallen,9008,47.434961781978,9.384412311603,1890.0,110.0,4.5,1988.0,False,False,False
4001090050,"['APARTMENT', 'FLAT']",Lausanne,1004,46.534841781973,6.616722311601,1870.0,64.0,2.5,1960.0,False,True,True
4001086148,"['APARTMENT', 'FLAT']",Biel/Bienne,2504,47.151651781975,7.265602311605,1330.0,104.0,3.0,1961.0,True,True,True
4001081872,"['APARTMENT', 'FLAT']",St. Gallen,9000,47.424561781977,9.378272311603,1965.0,83.0,4.5,1989.0,True,True,False
4001028372,"['APARTMENT', 'FLAT']",Basel,4057,47.563251781977,7.593382311601,815.0,34.0,1.0,1952.0,True,True,False
4001090047,"['APARTMENT', 'ROOF_FLAT']",Sargans,7320,47.051011781971,9.445442311601,1961.0,98.0,3.5,2010.0,True,True,True
4001028371,"['APARTMENT', 'FLAT']",Basel,4057,47.563251781977,7.593382311601,1670.0,76.0,3.0,1952.0,True,True,False
4001081873,"['APARTMENT', 'FLAT']",Solothurn,4500,47.207481781972,7.512062311601,2012.0,103.0,5.5,1981.0,False,True,True
4001081874,"['APARTMENT', 'FLAT']",Münchenbuchsee,3053,47.021491781979,7.446842311609,1820.0,96.0,4.5,1980.0,False,True,True
4001041501,"['APARTMENT', 'FLAT']",Urtenen-Schönbühl,3322,47.024761781973,7.502832311601,1720.0,81.0,3.5,2008.0,True,True,False
4001049443,"['APARTMENT', 'FLAT']",Münsingen,3110,46.869121781974,7.554002311608,1870.0,103.0,4.5,1996.0,True,True,True
4001081795,"['APARTMENT', 'FLAT']",Basel,4053,47.542071781971,7.601252311609,1824.0,83.0,3.5,1901.0,True,True,False
4001086429,"['APARTMENT', 'FLAT']",Neuchâtel,2000,46.997361781971,6.928242311609,1630.0,72.0,3.0,1970.0,True,True,True
4001081751,"['APARTMENT', 'FLAT']",Langenthal,4900,47.214101781978,7.785732311605,1740.0,96.0,4.5,1983.0,True,True,False
4001051244,"['APARTMENT', 'FLAT']",Lausanne,1018,46.537261781973,6.618702311601,2570.0,97.0,4.5,1973.0,True,True,True
4001081885,"['APARTMENT', 'FLAT']",Biel/Bienne,2503,47.134591781979,7.260302311601,1100.0,49.0,2.0,1955.0,True,False,False
4001081844,"['APARTMENT', 'FLAT']",Lengnau BE,2543,47.179771781975,7.374942311608,1100.0,67.0,3.5,1973.0,False,False,True
4001081768,"['APARTMENT', 'FLAT']",Solothurn,4500,47.201571781973,7.538522311601,2130.0,86.0,4.5,1967.0,False,False,False
4001028401,"['APARTMENT', 'FLAT']",Dornach,4143,47.486551781973,7.608812311601,1928.0,84.0,4.0,1971.0,True,True,True
4001049445,"['APARTMENT', 'FLAT']",Thun,3600,46.749191781976,7.612732311604,1600.0,80.0,4.0,1970.0,False,True,True
4001051243,"['APARTMENT', 'FLAT']",Lausanne,1018,46.537261781973,6.618702311601,2530.0,97.0,4.5,1973.0,True,True,True
4001081847,"['APARTMENT', 'FLAT']",Neuchâtel,2000,46.995611781974,6.935492311607,2360.0,100.0,4.5,1952.0,True,False,True
4001051242,"['APARTMENT', 'FLAT']",Lausanne,1018,46.537261781973,6.618702311601,1672.0,65.0,3.5,1973.0,True,True,True
4001081749,"['APARTMENT', 'FLAT']",Lausanne,1003,46.519511781975,6.634792311604,2820.0,122.0,3.5,1908.0,True,True,False
4001051241,"['APARTMENT', 'FLAT']",Lausanne,1018,46.537261781973,6.618702311601,1260.0,48.0,2.5,1973.0,True,True,True
4001081809,"['APARTMENT', 'FLAT']",Frenkendorf,4402,47.504201781977,7.713262311601,1528.0,67.0,3.0,1967.0,True,False,True
4001020862,"['APARTMENT', 'FLAT']",Wil SG,9500,47.463411781971,9.040642311608,1460.0,73.0,4.0,1953.0,True,False,False
4001044969,"['APARTMENT', 'FLAT']",Riehen,4125,47.581711781976,7.648992311604,1600.0,65.0,2.5,1948.0,True,False,False
4001118937,"['APARTMENT', 'FLAT']",Neuhausen am Rhein,8212,47.680551781971,8.618712311607,1629.0,100.0,3.5,1989.0,False,False,False
4001115566,"['APARTMENT', 'FLAT']",Neuhausen am Rhein,8212,47.680551781971,8.618712311607,1644.0,97.0,4.5,1989.0,False,False,False
4001118938,"['APARTMENT', 'FLAT']",Neuhausen am Rhein,8212,47.680841781978,8.618202311608,1213.0,45.0,2.5,1989.0,False,False,False
4001115495,"['APARTMENT', 'FLAT']",Pratteln,4133,47.532161781979,7.709542311605,1420.0,64.0,3.5,2014.0,True,False,False
4001115494,"['APARTMENT', 'FLAT']",Pratteln,4133,47.532161781979,7.709542311605,1390.0,64.0,3.5,2014.0,True,False,False
4001120336,"['APARTMENT', 'FLAT']",Biel/Bienne,2504,47.151071781978,7.272672311604,1380.0,61.0,3.0,1960.0,False,False,False
4001097418,"['APARTMENT', 'FLAT']",Grenchen,2540,47.188321781973,7.379782311602,1260.0,71.0,4.0,2014.0,True,False,True
4001093214,"['APARTMENT', 'FLAT']",Biel/Bienne,2504,47.150861781974,7.271542311608,1356.0,60.0,3.0,1960.0,False,False,False
4001115453,"['APARTMENT', 'FLAT']",Allschwil,4123,47.543481781972,7.545532311605,2781.0,119.0,4.5,2006.0,False,False,True
4001104196,"['APARTMENT', 'FLAT']",Winterthur,8404,47.514551781978,8.760272311606,1702.0,65.0,3.0,1959.0,False,False,False
4001120333,"['APARTMENT', 'FLAT']",Basel,4057,47.566631781976,7.595092311601,1880.0,95.0,3.5,1981.0,True,True,False
4001102048,"['APARTMENT', 'FLAT']",Dietikon,8953,47.404931781977,8.400972311601,2909.0,126.0,4.5,2011.0,True,True,False
4001120356,"['APARTMENT', 'FLAT']",Kloten,8302,47.459581781978,8.582032311601,2104.0,88.0,3.5,1965.0,False,True,True
4001120353,"['APARTMENT', 'FLAT']",Kriens,6010,47.027741781977,8.301462311601,2460.0,81.0,3.5,2018.0,False,False,False
4001120354,"['APARTMENT', 'FLAT']",Basel,4055,47.555131781971,7.576202311606,1360.0,47.0,2.0,1970.0,False,False,False
4001112548,"['APARTMENT', 'FLAT']",Basel,4052,47.541301781971,7.621712311608,4200.0,149.0,4.5,2007.0,True,True,False
4001120339,"['APARTMENT', 'FLAT']",Chiasso,6830,45.836091781975,9.026362311607,1070.0,49.0,2.5,2015.0,False,True,True
4001092318,"['APARTMENT', 'FLAT']",Grenchen,2540,47.188091781979,7.380002311602,1120.0,59.0,3.0,2014.0,True,False,True
4001100921,"['APARTMENT', 'FLAT']",Neuchâtel,2000,46.983351781972,6.899882311604,940.0,34.0,1.5,2014.0,False,False,False
4001115469,"['APARTMENT', 'FLAT']",Fribourg,1700,46.801541781971,7.143812311604,1820.0,88.0,4.0,1900.0,False,False,True
4001112542,"['APARTMENT', 'FLAT']",Greifensee,8606,47.371341781974,8.681632311602,2238.0,111.0,4.5,1968.0,True,True,True
4001099151,"['APARTMENT', 'FLAT']",Lugano,6900,46.003551781975,8.949732311604,2070.0,66.0,3.0,1946.0,False,True,False
4001115450,"['APARTMENT', 'DUPLEX']",La Chaux-de-Fonds,2300,47.102571781972,6.828482311607,1730.0,111.0,4.5,1993.0,False,True,False
4001106721,"['APARTMENT', 'FLAT']",Basel,4057,47.563251781977,7.593382311601,1680.0,76.0,3.0,1952.0,True,True,False
4001110211,"['APARTMENT', 'FLAT']",Aarau,5000,47.378921781975,8.055502311605,1719.0,78.0,3.5,1963.0,True,True,True
4001112535,"['APARTMENT', 'FLAT']",Reinach BL,4153,47.502091781977,7.593632311609,2290.0,114.0,4.5,1974.0,True,True,True
4001115462,"['APARTMENT', 'FLAT']",St. Gallen,9000,47.425661781979,9.375362311609,1050.0,34.0,1.5,1933.0,False,False,False
4001106728,"['APARTMENT', 'FLAT']",Dornach,4143,47.486571781974,7.608552311607,1810.0,84.0,4.0,1971.0,True,True,True
4001100929,"['APARTMENT', 'FLAT']",Winterthur,8404,47.506441781978,8.754332311601,1955.0,96.0,3.5,1987.0,True,True,False
4001117565,"['APARTMENT', 'DUPLEX']",Basel,4051,47.559281781973,7.588292311604,2610.0,110.0,3.5,2014.0,False,False,False
4001115465,"['APARTMENT', 'FLAT']",Aadorf,8355,47.484461781972,8.910082311606,1790.0,95.0,4.5,1974.0,True,True,True
4001093220,"['APARTMENT', 'FLAT']",Schliern b. Köniz,3098,46.908351781976,7.415502311608,2273.0,100.0,4.5,1986.0,True,True,True
4001117560,"['APARTMENT', 'FLAT']",Fribourg,1700,46.802091781976,7.143262311602,1325.0,57.0,2.5,1987.0,True,True,True
4001104226,"['APARTMENT', 'FLAT']",St. Gallen,9000,47.427931781971,9.377032311609,2039.0,97.0,3.5,1920.0,False,True,False
4001115487,"['APARTMENT', 'FLAT']",Winterthur,8404,47.506101781977,8.754312311609,1854.0,98.0,3.5,1987.0,True,True,False
4001104221,"['APARTMENT', 'FLAT']",St. Gallen,9000,47.427931781971,9.377032311609,2229.0,97.0,4.0,1920.0,False,True,False
4001104192,"['APARTMENT', 'FLAT']",Neuchâtel,2000,46.993791781973,6.935732311606,2360.0,110.0,5.5,1948.0,True,True,False
4001100924,"['APARTMENT', 'FLAT']",Solothurn,4500,47.202451781971,7.545022311602,1403.0,68.0,3.5,1965.0,True,True,True
4001120332,"['APARTMENT', 'ATTIC_FLAT']",Basel,4054,47.546461781974,7.568292311601,2760.0,101.0,4.0,1956.0,True,True,True
4001112528,"['APARTMENT', 'FLAT']",Zürich,8006,47.390941781977,8.544802311607,2610.0,81.0,3.0,1938.0,True,False,False
4001110208,"['APARTMENT', 'FLAT']",Uster,8610,47.344691781971,8.734912311602,1770.0,57.0,2.5,1975.0,True,False,False
4001110219,"['APARTMENT', 'FLAT']",Gland,1196,46.423331781974,6.256862311607,2060.0,97.0,3.0,1986.0,True,True,True
4001112551,"['APARTMENT', 'FLAT']",Basel,4051,47.549481781978,7.587812311602,3200.0,90.0,3.0,2011.0,False,True,False
4001120329,"['APARTMENT', 'FLAT']",Uster,8610,47.344681781971,8.734462311601,1782.0,57.0,2.5,1975.0,True,False,False
4001115481,"['APARTMENT', 'FLAT']",La Chaux-de-Fonds,2300,47.107411781976,6.842972311605,1270.0,77.0,4.0,1973.0,True,True,False
4001117570,"['APARTMENT', 'FLAT']",Estavayer-le-Lac,1470,46.849611781972,6.842562311603,1525.0,82.0,4.5,1972.0,True,False,True
4001100928,"['APARTMENT', 'FLAT']",St. Gallen,9016,47.437451781971,9.418662311601,1710.0,91.0,4.5,1979.0,True,True,True
4001115482,"['APARTMENT', 'FLAT']",La Chaux-de-Fonds,2300,47.105581781972,6.842882311604,1330.0,83.0,4.5,1972.0,True,True,False
4001095763,"['APARTMENT', 'ATTIC_FLAT']",Zürich,8006,47.387401781971,8.537192311608,3210.0,68.0,2.5,1968.0,True,True,True
4001099153,"['APARTMENT', 'FLAT']",Wil SG,9500,47.469841781979,9.041732311609,1280.0,66.0,3.0,1961.0,True,False,True
4001104235,"['APARTMENT', 'FLAT']",Gossau SG,9200,47.412151781973,9.252032311605,1867.0,98.0,4.5,2008.0,True,True,False
4001120347,"['APARTMENT', 'FLAT']",La Chaux-de-Fonds,2300,47.107411781976,6.842972311605,1450.0,89.0,4.0,1973.0,True,True,False
4001099150,"['APARTMENT', 'FLAT']",Massagno,6900,46.009931781975,8.939842311608,1589.0,95.0,4.5,1988.0,False,False,True
4001133400,"['APARTMENT', 'ATTIC_FLAT']",St. Gallen,9000,47.419491781971,9.355372311603,2505.0,148.0,4.5,1957.0,True,False,False
4001131018,"['APARTMENT', 'DUPLEX']",Sissach,4450,47.470721781971,7.800992311601,2470.0,105.0,4.5,2008.0,False,False,False
4001136088,"['APARTMENT', 'FLAT']",Lyss,3250,47.078861781972,7.306952311605,1416.0,65.0,3.5,1963.0,True,False,True
4001136087,"['APARTMENT', 'FLAT']",Lyss,3250,47.078861781972,7.306952311605,1464.0,65.0,3.5,1963.0,False,False,True
4001136085,"['APARTMENT', 'FLAT']",Sissach,4450,47.470521781974,7.801282311603,1930.0,97.0,4.5,2008.0,True,False,False
4001141831,"['APARTMENT', 'FLAT']",Pregassona,6963,46.023081781976,8.967412311603,1222.0,49.0,2.5,2014.0,True,True,True
4001139795,"['APARTMENT', 'FLAT']",Thun,3600,46.759511781973,7.624132311601,1996.0,89.0,3.5,2014.0,True,True,False
4001129590,"['APARTMENT', 'FLAT']",Basel,4057,47.566461781979,7.596082311601,1460.0,65.0,3.0,1956.0,False,False,False
4001131037,"['APARTMENT', 'FLAT']",Kriens,6010,47.027741781977,8.301462311601,1940.0,59.0,2.5,2018.0,False,False,False
4001141837,"['APARTMENT', 'FLAT']",Basel,4051,47.552301781973,7.592262311607,2080.0,64.0,2.5,2010.0,False,False,False
4001133134,"['APARTMENT', 'FLAT']",Meyrin,1217,46.229151781977,6.083302311607,1839.0,54.0,3.0,1970.0,False,False,False
4001134109,"['APARTMENT', 'FLAT']",Zürich,8051,47.406091781971,8.567242311603,1849.0,65.0,3.0,1967.0,True,True,True
4001134107,"['APARTMENT', 'FLAT']",Menziken,5737,47.244841781978,8.181102311604,1736.0,117.0,4.5,1992.0,False,False,False
4001133150,"['APARTMENT', 'FLAT']",Neuhausen,8212,47.680681781979,8.617882311602,1580.0,88.0,3.5,1911.0,False,False,False
4001140584,"['APARTMENT', 'FLAT']",Kaiseraugst,4303,47.533821781974,7.730212311601,2070.0,117.0,4.5,2014.0,False,False,True
4001137104,"['APARTMENT', 'FLAT']",Wallisellen,8304,47.409561781972,8.605962311603,2650.0,129.0,3.5,2014.0,False,False,False
4001129610,"['APARTMENT', 'FLAT']",Nyon,1260,46.391211781972,6.238522311605,2940.0,114.0,6.0,1981.0,True,True,True
4001136084,"['APARTMENT', 'FLAT']",Sissach,4450,47.470461781979,7.801592311603,1920.0,101.0,4.5,2005.0,True,False,False
4001129603,"['APARTMENT', 'FLAT']",Lugano,6900,46.018431781972,8.960492311604,1250.0,37.0,1.5,2014.0,False,False,False
4001139791,"['APARTMENT', 'FLAT']",Locarno,6600,46.169531781979,8.792402311604,1390.0,63.0,3.0,1800.0,False,False,False
4001133127,"['APARTMENT', 'FLAT']",Fribourg,1700,46.801861781971,7.142462311608,1220.0,57.0,2.5,1987.0,True,True,True
4001131036,"['APARTMENT', 'FLAT']",Nyon,1260,46.390971781973,6.238572311608,2265.0,86.0,4.0,1981.0,True,True,True
4001133135,"['APARTMENT', 'FLAT']",Weinfelden,8570,47.567231781973,9.122202311603,2193.0,128.0,5.5,2009.0,True,True,False
4001141843,"['APARTMENT', 'FLAT']",Arbon,9320,47.519171781974,9.425582311604,1125.0,75.0,3.5,1964.0,False,False,True
4001122438,"['APARTMENT', 'FLAT']",Wetzikon ZH,8620,47.328561781971,8.800952311607,1610.0,62.0,2.5,1988.0,True,True,False
4001136083,"['APARTMENT', 'FLAT']",Sissach,4450,47.470841781976,7.802682311605,1800.0,91.0,3.5,2001.0,True,True,False
4001131034,"['APARTMENT', 'FLAT']",Ascona,6612,46.163571781977,8.771912311603,1350.0,48.0,2.0,2017.0,False,False,False
4001137095,"['APARTMENT', 'FLAT']",Romanshorn,8590,47.563691781976,9.377962311605,1220.0,56.0,2.5,1972.0,True,True,True
4001122440,"['APARTMENT', 'FLAT']",Langenthal,4900,47.218851781979,7.779462311601,1900.0,108.0,4.5,2010.0,True,True,True
4001139770,"['APARTMENT', 'FLAT']",Arbon,9320,47.519741781971,9.421912311601,1078.0,64.0,3.5,1956.0,True,False,True
4001137097,"['APARTMENT', 'FLAT']",Lugano,6900,46.009611781974,8.962002311609,1600.0,54.0,2.5,2020.0,False,False,False
4001133156,"['APARTMENT', 'FLAT']",Neuenegg,3176,46.894141781973,7.318392311609,1925.0,102.0,4.5,2006.0,True,True,False
4001123071,"['APARTMENT', 'FLAT']",Binningen,4102,47.536131781973,7.576292311605,2880.0,108.0,5.5,1981.0,False,False,False
4001129601,"['APARTMENT', 'DUPLEX']",Allschwil,4123,47.550471781979,7.535552311601,2010.0,85.0,3.5,1988.0,True,False,False
4001139772,"['APARTMENT', 'FLAT']",Zuchwil,4528,47.202211781979,7.546412311609,1486.0,70.0,3.5,1982.0,True,True,True
4001140572,"['APARTMENT', 'FLAT']",St. Gallen,9000,47.427931781971,9.377032311609,2490.0,110.0,5.0,1920.0,False,True,False
4001133152,"['APARTMENT', 'FLAT']",Biel/Bienne,2503,47.134591781979,7.260302311601,1090.0,49.0,2.0,1955.0,False,False,False
4001136093,"['APARTMENT', 'FLAT']",Basel,4056,47.562471781978,7.578652311607,1410.0,50.0,2.0,1979.0,True,True,False
4001129593,"['APARTMENT', 'FLAT']",Zürich,8002,47.358161781973,8.527822311604,3580.0,88.0,3.0,1913.0,False,False,True
4001139774,"['APARTMENT', 'FLAT']",Baden,5400,47.472821781975,8.308122311601,2940.0,110.0,3.5,1953.0,False,True,False
4001141842,"['APARTMENT', 'FLAT']",Binningen,4102,47.536361781971,7.577142311601,1680.0,74.0,2.5,1994.0,True,True,True
4001129619,"['APARTMENT', 'FLAT']",Romanshorn,8590,47.569381781973,9.363362311601,1580.0,84.0,3.5,2008.0,False,True,True
4001129594,"['APARTMENT', 'FLAT']",Goldach,9403,47.479961781972,9.474572311602,1490.0,72.0,3.5,1995.0,True,True,False
4001133138,"['APARTMENT', 'FLAT']",La Chaux-de-Fonds,2300,47.105581781972,6.842882311604,1370.0,70.0,3.5,1972.0,True,True,False
4001131015,"['APARTMENT', 'FLAT']",Lausanne,1005,46.518201781975,6.645592311605,1475.0,47.0,2.5,1950.0,True,True,True
4001131031,"['APARTMENT', 'FLAT']",Fribourg,1700,46.798271781977,7.151042311604,1880.0,81.0,3.0,1930.0,True,True,True
4001131030,"['APARTMENT', 'FLAT']",Fribourg,1700,46.798271781977,7.151042311604,1850.0,89.0,3.0,1930.0,True,True,True
4001131029,"['APARTMENT', 'FLAT']",Fribourg,1700,46.798271781977,7.151042311604,1850.0,78.0,3.0,1930.0,True,True,True
4001133137,"['APARTMENT', 'FLAT']",La Chaux-de-Fonds,2300,47.105581781972,6.842882311604,1230.0,71.0,3.5,1972.0,True,True,False
4001139766,"['APARTMENT', 'FLAT']",Genève,1202,46.214231781979,6.150632311601,2170.0,43.0,3.0,1946.0,False,False,False
4001131033,"['APARTMENT', 'FLAT']",Wil SG,9500,47.470111781979,9.041552311609,1280.0,66.0,3.0,1961.0,True,False,True
4001122437,"['APARTMENT', 'FLAT']",Wetzikon ZH,8620,47.328511781975,8.801162311603,2490.0,111.0,3.5,1988.0,True,True,False
4001134099,"['APARTMENT', 'FLAT']",Rheinfelden,4310,47.547551781971,7.763672311609,1566.0,85.0,3.5,1973.0,True,True,False
4001133129,"['APARTMENT', 'FLAT']",Aarau,5000,47.390021781978,8.050542311602,2780.0,143.0,5.5,2002.0,True,False,False
4001140585,"['APARTMENT', 'FLAT']",Basel,4052,47.553951781978,7.597232311607,1850.0,76.0,3.0,1964.0,True,True,True
4001133119,"['APARTMENT', 'FLAT']",Fribourg,1700,46.801751781972,7.143902311605,1536.0,77.0,3.5,1959.0,True,True,False
4001140574,"['APARTMENT', 'FLAT']",St. Gallen,9014,47.408621781976,9.343072311602,1476.0,88.0,4.0,1982.0,False,True,False
4001151855,"['APARTMENT', 'FLAT']",Merligen,3658,46.701661781971,7.759322311608,1800.0,115.0,4.5,1808.0,True,False,True
4001151791,"['APARTMENT', 'FLAT']",Finsterhennen,2577,47.026351781978,7.178502311605,1719.0,105.0,3.5,1997.0,True,False,True
4001151781,"['APARTMENT', 'ROOF_FLAT']",Heimberg,3627,46.795071781978,7.604012311604,2390.0,131.0,4.5,2014.0,True,True,True
4001151706,"['APARTMENT', 'FLAT']",Dübendorf,8600,47.392021781973,8.616372311608,2990.0,95.0,2.5,2014.0,True,True,True
4001151689,"['APARTMENT', 'FLAT']",Dübendorf,8600,47.392021781973,8.616372311608,3990.0,122.0,3.5,2014.0,True,True,True
4001151617,"['APARTMENT', 'FLAT']",Laufen,4242,47.421591781974,7.500772311602,1050.0,40.0,2.5,2014.0,False,False,False
4001151597,"['APARTMENT', 'ROOF_FLAT']",Prilly,1008,46.534331781972,6.601452311601,1830.0,60.0,3.0,1962.0,True,True,True
4001151549,"['APARTMENT', 'FLAT']",Bern,3006,46.942411781971,7.463512311605,2300.0,82.0,3.5,2014.0,True,False,False
4001151322,"['APARTMENT', 'FLAT']",Rheinfelden,4310,47.552051781979,7.812722311605,2130.0,86.0,3.5,1991.0,True,True,False
4001151286,"['APARTMENT', 'DUPLEX']",Bern,3005,46.941331781973,7.449982311608,3780.0,127.0,4.5,2014.0,True,False,False
4001151264,"['APARTMENT', 'ROOF_FLAT']",Hasle LU,6166,46.978071781971,8.049442311603,1500.0,112.0,5.0,2014.0,True,False,True
4001151165,"['APARTMENT', 'FLAT']",Rudolfstetten,8964,47.365871781975,8.385332311608,2183.0,130.0,4.5,2014.0,True,True,False
4001151163,"['APARTMENT', 'FLAT']",Reichenbach im Kandertal,3713,46.621101781978,7.677552311608,1850.0,150.0,3.5,2003.0,True,False,True
4001150934,"['APARTMENT', 'STUDIO']",St-Imier,2610,47.162031781975,6.997582311609,750.0,52.0,1.0,1995.0,True,True,False
4001150815,"['APARTMENT', 'FLAT']",Seedorf BE,3267,47.028321781976,7.318692311603,1869.0,100.0,4.0,2014.0,True,False,True
4001150779,"['APARTMENT', 'FLAT']",Zeiningen,4314,47.539761781977,7.874942311604,2340.0,113.0,4.5,2023.0,True,True,False
4001150717,"['APARTMENT', 'ROOF_FLAT']",Wabern,3084,46.931461781971,7.452562311604,1005.0,39.0,1.5,1939.0,False,False,False
4001150714,"['APARTMENT', 'FLAT']",Reinach AG,5734,47.260431781977,8.176312311603,1460.0,69.0,3.5,1949.0,True,False,False
4001150692,"['APARTMENT', 'ATTIC_FLAT']",Urtenen-Schönbühl,3322,47.017601781973,7.508522311603,1990.0,85.0,4.5,2014.0,True,False,False
4001150621,"['APARTMENT', 'FLAT']",Brig,3900,46.306051781976,7.953972311601,2850.0,156.0,4.5,2014.0,True,True,True
4001150560,"['APARTMENT', 'FLAT']",Schüpfen,3054,47.046111781973,7.375162311604,1760.0,85.0,3.5,2010.0,True,True,True
4001150545,"['APARTMENT', 'STUDIO']",Corseaux,1802,46.469711781977,6.837172311603,1500.0,40.0,1.5,2022.0,True,False,True
4001150445,"['APARTMENT', 'FLAT']",Thun,3604,47.420681781977,8.302922311609,1800.0,77.0,3.5,1985.0,True,True,False
4001150345,"['APARTMENT', 'ATTIC_FLAT']",Wabern,3084,46.929011781977,7.448972311605,1450.0,55.0,2.5,1978.0,False,True,False
4001056116,"['APARTMENT', 'FLAT']",Oberwil BL,4104,47.516421781975,7.558842311608,2140.0,83.0,4.0,2014.0,True,True,True
4001150308,"['APARTMENT', 'ATTIC_FLAT']",Villeneuve VD,1844,46.410101781974,6.969442311605,2400.0,80.0,3.5,2022.0,True,False,False
4001150153,"['APARTMENT', 'FLAT']",Boudry,2017,46.947981781978,6.835002311606,2300.0,116.0,4.5,2020.0,True,True,True
4000958644,"['APARTMENT', 'FLAT']",Basel,4057,47.569361781974,7.597532311607,2360.0,85.0,3.5,2024.0,True,False,True
4001125546,"['APARTMENT', 'FLAT']",Rovio,6821,45.939531781977,8.984892311607,1570.0,100.0,3.5,2001.0,True,False,True
4001140368,"['APARTMENT', 'FLAT']",Vacallo,6833,45.841901781979,9.028162311608,1100.0,52.0,2.5,2022.0,False,True,True
4000622016,"['HOUSE', 'VILLA']",Chavannes-sous-Orsonnens,1694,46.729391781979,6.993582311603,3200.0,183.0,5.5,2024.0,False,False,True
4001140975,"['APARTMENT', 'FLAT']",Lohn-Ammannsegg,4573,47.172701781978,7.535312311603,2111.0,106.0,4.5,2022.0,True,True,True
4000955332,"['APARTMENT', 'FLAT']",Oberburg,3414,47.035741781977,7.628642311609,1650.0,85.0,3.5,2009.0,True,False,True
4000941349,"['APARTMENT', 'FLAT']",Schwende,9057,47.271181781978,9.379662311601,3740.0,176.0,5.5,2024.0,True,True,True
4001093929,"['APARTMENT', 'STUDIO']",Neuchâtel,2000,46.994821781972,6.942082311607,995.0,20.0,1.0,2024.0,False,False,False
4001106841,"['APARTMENT', 'DUPLEX']",Rothrist,4852,47.305381781977,7.876462311602,2490.0,120.0,5.5,2014.0,True,False,True
4000940979,"['APARTMENT', 'FLAT']",Schwende,9057,47.271181781978,9.379662311601,3720.0,175.0,4.5,2024.0,True,True,True
4000824386,"['APARTMENT', 'FLAT']",Chavannes-les-Forts,1676,46.648351781971,6.895392311603,2090.0,92.0,3.5,2014.0,True,True,True
4001142282,"['APARTMENT', 'FLAT']",Langenthal,4900,47.211291781971,7.786682311607,1670.0,78.0,3.5,2022.0,True,True,False
4000807413,"['APARTMENT', 'FLAT']",Attiswil,4536,47.248511781971,7.619022311606,2190.0,106.0,4.5,2022.0,True,True,False
4000824350,"['APARTMENT', 'FLAT']",St. Niklaus VS,3924,46.179891781971,7.808782311604,2100.0,145.0,5.5,2024.0,True,True,True
4000807378,"['APARTMENT', 'FLAT']",Crans-près-Céligny,1299,46.363851781977,6.182642311602,3450.0,90.0,4.0,2014.0,True,False,True
4000807412,"['APARTMENT', 'FLAT']",Attiswil,4536,47.248511781971,7.619022311606,2270.0,106.0,4.5,2022.0,True,True,False
4000824209,"['APARTMENT', 'FLAT']",Büren an der Aare,3294,47.139481781975,7.374102311608,2550.0,114.0,4.5,2014.0,True,False,False
4000941353,"['APARTMENT', 'FLAT']",Schwende,9057,47.286361781977,9.397782311603,3120.0,137.0,4.5,2024.0,True,True,True
4000824798,"['HOUSE', 'VILLA']",Blonay,1807,46.460161781979,6.895862311603,5500.0,200.0,5.5,2023.0,True,False,True
4000986669,"['APARTMENT', 'FLAT']",Cham,6330,47.184981781977,8.474382311602,3390.0,72.0,2.5,2014.0,False,True,False
4001140247,"['APARTMENT', 'FLAT']",Galgenen,8854,47.180681781976,8.875672311605,3030.0,118.0,4.5,2024.0,True,True,True
4000957725,"['APARTMENT', 'FLAT']",Villarlod,1695,46.705341781976,7.021012311608,2600.0,135.0,4.5,2024.0,True,False,True
4000824783,"['APARTMENT', 'FLAT']",Sierre,3960,46.290581781973,7.526252311603,1590.0,75.0,2.5,2022.0,True,True,True
4001117817,"['APARTMENT', 'FLAT']",Zürich,8048,47.391211781975,8.497612311608,4604.0,98.0,3.0,2022.0,True,True,True
4001065915,"['APARTMENT', 'FLAT']",Brüttelen,3237,47.024321781977,7.148962311606,2175.0,136.0,4.5,2024.0,True,True,True
4001117233,"['APARTMENT', 'FLAT']",Ettingen,4107,47.486551781977,7.546842311603,4450.0,185.0,5.5,2020.0,True,True,True
4001149683,"['APARTMENT', 'FLAT']",Bern,3011,46.946641781976,7.437762311604,3050.0,111.0,4.5,2014.0,True,True,False
4001149633,"['APARTMENT', 'FLAT']",Bois-d'Amont,1732,46.746211781979,7.122462311601,1750.0,90.0,3.5,2011.0,True,False,True
4001149632,"['APARTMENT', 'ROOF_FLAT']",Pully,1009,46.513111781971,6.659652311609,2640.0,108.0,5.5,1963.0,True,True,False
4001149599,"['APARTMENT', 'DUPLEX']",La Chaux-de-Fonds,2300,47.107371781973,6.841762311605,1480.0,98.0,4.5,2014.0,True,True,True
4001149589,"['APARTMENT', 'FLAT']",Olten,4600,47.348701781975,7.900772311601,2350.0,103.0,5.5,2012.0,True,False,True
4001149587,"['APARTMENT', 'FLAT']",Marly,1723,46.778221781977,7.156762311601,2195.0,115.0,4.5,2014.0,True,True,True
4001149555,"['APARTMENT', 'FLAT']",Chapelle-sur-Moudon,1063,46.668991781977,6.734632311607,2050.0,107.0,3.5,2014.0,True,False,True
4001149541,"['APARTMENT', 'BACHELOR_FLAT']",Freienwil,5423,47.498851781979,8.321302311601,1910.0,85.0,3.5,2020.0,False,False,False
4001149512,"['HOUSE', 'SINGLE_HOUSE']",Tägerschen,9554,47.507621781975,9.028572311601,1900.0,140.0,6.0,2014.0,True,False,True
4001149511,"['APARTMENT', 'DUPLEX']",La Chaux-de-Fonds,2300,47.117671781972,6.840562311601,1541.0,180.0,6.0,1902.0,False,False,False
4001149495,"['APARTMENT', 'TERRACE_FLAT']",Mézières VD,1083,46.589251781974,6.763412311604,1891.0,80.0,3.0,2012.0,True,True,True
4001149485,"['APARTMENT', 'ATTIC_FLAT']",Horn,9326,47.494951781976,9.462702311607,3300.0,153.0,5.5,2007.0,True,True,True
4001149412,"['APARTMENT', 'ROOF_FLAT']",Münchenstein,4142,47.529741781971,7.612542311607,1870.0,110.0,2.5,1985.0,True,False,True
4001149409,"['APARTMENT', 'FLAT']",Aigle,1860,46.323051781971,6.957082311605,1549.0,62.0,2.5,2022.0,True,False,False
4001149332,"['APARTMENT', 'FLAT']",Confignon,1232,46.176401781978,6.079982311601,3020.0,100.0,4.0,2014.0,True,False,False
4001149078,"['APARTMENT', 'FLAT']",Wilchingen,8217,47.664881781976,8.452852311606,1400.0,80.0,3.5,1992.0,True,False,True
4001149044,"['HOUSE', 'SINGLE_HOUSE']",Thun,3604,46.741191781971,7.612742311608,2900.0,140.0,5.5,2014.0,True,False,True
4001149043,"['APARTMENT', 'FLAT']",Derendingen,4552,47.194051781976,7.588842311601,950.0,60.0,1.5,2014.0,True,False,True
3002256937,"['APARTMENT', 'FLAT']",Seewen SZ,6423,47.029301781979,8.630022311606,1090.0,18.0,1.0,2022.0,True,False,False
3002256935,"['APARTMENT', 'FLAT']",Seewen SZ,6423,47.029301781979,8.630022311606,1040.0,20.0,1.0,2022.0,False,False,False
3003296264,"['APARTMENT', 'FLAT']",Seewen SZ,6423,47.029301781979,8.630022311606,1140.0,25.0,1.0,2022.0,True,False,False
3003296216,"['APARTMENT', 'FLAT']",Seewen SZ,6423,47.029301781979,8.630022311606,1090.0,24.0,1.0,2022.0,False,False,False
4000990017,"['APARTMENT', 'ROOF_FLAT']",Zollikon,8702,47.345741781976,8.577432311602,3080.0,90.0,2.5,2014.0,True,False,True
4001134939,"['APARTMENT', 'ROOF_FLAT']",Zürich,8048,47.387061781972,8.488912311601,2860.0,53.0,2.0,2014.0,True,False,False
4001148864,"['APARTMENT', 'FLAT']",Neuenhof,5432,47.452681781971,8.323692311605,1930.0,85.0,4.5,1955.0,True,False,True
4001148863,"['APARTMENT', 'FLAT']",Neuchâtel,2000,46.999071781978,6.935942311608,1595.0,70.0,3.5,2014.0,True,False,False
4001148859,"['APARTMENT', 'FLAT']",Chernex,1822,46.447671781971,6.906032311601,1540.0,60.0,2.5,2014.0,True,True,False
4001148850,"['APARTMENT', 'FLAT']",Jaun,1656,46.610581781974,7.275752311601,1490.0,72.0,3.5,2023.0,True,True,False
4001148844,"['APARTMENT', 'FLAT']",Fribourg,1700,46.805401781979,7.165302311609,1490.0,73.0,3.5,2014.0,False,False,False
4001148830,"['APARTMENT', 'ROOF_FLAT']",Zuchwil,4528,47.206261781971,7.560202311608,1105.0,45.0,2.0,1982.0,True,False,False
4001148666,"['APARTMENT', 'FLAT']",Luzern,6005,47.041951781977,8.314082311602,2500.0,113.0,4.5,1998.0,True,True,False
4001138508,"['HOUSE', 'BIFAMILIAR_HOUSE']",Münchwilen TG,9542,47.478891781973,8.992012311605,2850.0,150.0,6.5,2020.0,True,False,True
4001137927,"['APARTMENT', 'FLAT']",Hauenstein,4633,47.376931781973,7.871252311601,2000.0,115.0,3.5,2023.0,True,False,True
4001136401,"['APARTMENT', 'ROOF_FLAT']",Riggisberg,3132,46.810541781976,7.458872311605,2500.0,160.0,4.5,2019.0,True,False,True
4000838773,"['APARTMENT', 'FLAT']",Basel,4057,47.569361781974,7.597532311607,1870.0,60.0,2.5,2024.0,True,False,True
4000875729,"['APARTMENT', 'FLAT']",Kaltbrunn,8722,47.205861781972,9.038842311602,2000.0,91.0,4.5,2019.0,True,True,True
4001000796,"['APARTMENT', 'DUPLEX']",St. Gallen,9010,47.440181781972,9.377722311608,1795.0,66.0,2.5,2023.0,False,False,False
4001078863,"['APARTMENT', 'FLAT']",Wauwil,6242,47.186541781974,8.032892311608,3150.0,153.0,5.5,2024.0,True,True,True
4001102701,"['APARTMENT', 'FLAT']",Aarwangen,4912,47.243931781976,7.768572311602,1700.0,97.0,3.5,2014.0,True,True,True
4000766279,"['APARTMENT', 'FLAT']",Bellinzona,6500,46.205931781978,9.024542311602,2450.0,106.0,4.5,2014.0,True,True,False
4001078860,"['APARTMENT', 'FLAT']",Wauwil,6242,47.186541781974,8.032892311608,3150.0,153.0,5.5,2024.0,True,True,True
4001114632,"['APARTMENT', 'DUPLEX']",Altendorf,8852,47.195301781971,8.808102311603,3830.0,144.0,4.5,2024.0,True,True,True
4000975155,"['APARTMENT', 'TERRACE_FLAT']",Delsberg,2800,47.366801781974,7.352462311601,1580.0,83.0,3.5,2020.0,True,True,True
4001112587,"['APARTMENT', 'FLAT']",Aarwangen,4912,47.243931781976,7.768562311601,1790.0,107.0,4.5,2014.0,True,True,True
4001051833,"['APARTMENT', 'FLAT']",Uzwil,9240,47.435561781975,9.137182311605,1880.0,82.0,3.5,2024.0,True,True,False
4001065550,"['APARTMENT', 'FLAT']",Prilly,1008,46.540011781972,6.597122311608,1980.0,52.0,2.5,2024.0,True,True,True
4001138326,"['APARTMENT', 'FLAT']",Möhlin,4313,47.561611781977,7.839592311608,2900.0,116.0,4.5,2024.0,True,True,False
4001137155,"['APARTMENT', 'FLAT']",Savièse,1965,46.261121781974,7.367672311601,2000.0,105.0,3.5,2024.0,True,True,True
4001136053,"['APARTMENT', 'FLAT']",Liestal,4410,47.483231781974,7.731382311601,2300.0,99.0,3.5,2015.0,True,True,False
4001003520,"['APARTMENT', 'ROOF_FLAT']",Güttingen,8594,47.592051781979,9.281372311606,1845.0,60.0,2.5,2023.0,True,False,True
4001114631,"['APARTMENT', 'ATTIC_FLAT']",Altendorf,8852,47.195301781971,8.808102311603,2480.0,88.0,2.5,2024.0,True,True,True
4001049865,"['APARTMENT', 'DUPLEX']",Spiegel b. Bern,3095,46.924941781972,7.440002311603,4480.0,132.0,4.5,2016.0,True,True,False
4001102817,"['HOUSE', 'BIFAMILIAR_HOUSE']",Plagne,2536,47.188421781978,7.287332311603,2450.0,165.0,4.5,2024.0,True,False,True
4001064642,"['APARTMENT', 'FLAT']",Brüttelen,3237,47.024231781975,7.148782311605,1850.0,93.0,3.5,2024.0,True,True,True
4001090754,"['APARTMENT', 'FLAT']",Lengnau BE,2543,47.182371781972,7.365272311604,1710.0,87.0,3.5,1800.0,True,True,True
4001103715,"['APARTMENT', 'FLAT']",Therwil,4106,47.499971781979,7.553632311608,2942.0,99.0,3.5,2024.0,True,True,True
4001138535,"['APARTMENT', 'BACHELOR_FLAT']",Oberdiessbach,3672,46.836351781975,7.610732311601,950.0,23.0,1.0,2024.0,True,False,False
4001078812,"['APARTMENT', 'ATTIC_FLAT']",Davos Dorf,7260,46.775741781973,9.899772311608,3850.0,150.0,4.5,2015.0,True,True,True
4000840459,"['APARTMENT', 'FLAT']",Flamatt,3175,46.890891781971,7.327372311608,1995.0,70.0,3.5,2022.0,True,True,True
4001090524,"['APARTMENT', 'FLAT']",Zürich,8005,47.389001781976,8.525612311601,5850.0,118.0,3.5,2013.0,False,True,True
4000838374,"['APARTMENT', 'FLAT']",Frauenkappelen,3202,46.950601781979,7.337432311601,2990.0,135.0,3.5,2022.0,True,True,True
4001015092,"['APARTMENT', 'FLAT']",Avenches,1580,46.883641781973,7.045622311603,2750.0,137.0,4.5,2020.0,True,False,True
4001115856,"['APARTMENT', 'FLAT']",Grenchen,2540,47.187271781971,7.382182311609,780.0,70.0,2.0,2014.0,True,False,True
4001078806,"['APARTMENT', 'FLAT']",Prilly,1008,46.544261781972,6.603212311601,1880.0,50.0,2.5,2024.0,True,True,False
4001102502,"['APARTMENT', 'FLAT']",Möhlin,4313,47.560161781979,7.850212311601,3300.0,116.0,4.5,2024.0,True,True,False
4000838764,"['APARTMENT', 'FLAT']",Basel,4057,47.569361781974,7.597532311607,2360.0,85.0,3.5,2024.0,True,False,True
4001148439,"['APARTMENT', 'FLAT']",Biberist,4562,47.179611781978,7.566972311606,1800.0,90.0,3.5,2018.0,True,True,True
3002413023,"['APARTMENT', 'FLAT']",Herzogenbuchsee,3360,47.188661781975,7.707022311605,1280.0,90.0,4.5,2014.0,False,False,False
4000943755,"['APARTMENT', 'FLAT']",Herzogenbuchsee,3360,47.188701781971,7.707292311601,700.0,27.0,1.0,2014.0,False,False,False
4000622270,"['APARTMENT', 'ROOF_FLAT']",Herzogenbuchsee,3360,47.188701781971,7.707292311601,970.0,52.0,2.5,2014.0,False,False,False
4001148207,"['APARTMENT', 'BACHELOR_FLAT']",Neckertal,9122,47.363421781973,9.139762311606,850.0,61.0,3.0,2014.0,True,False,True
4001148182,"['APARTMENT', 'DUPLEX']",Sigriswil,3655,46.716181781977,7.714052311609,2700.0,110.0,4.5,1973.0,True,False,True
4001148181,"['APARTMENT', 'FLAT']",St-Prex,1162,46.482911781976,6.458342311602,2390.0,98.0,3.5,2014.0,True,True,True
4001148179,"['APARTMENT', 'FLAT']",Ehrendingen,5420,47.496941781973,8.340642311603,1990.0,105.0,3.5,2013.0,True,True,False
4001148158,"['APARTMENT', 'FLAT']",Meiringen,3860,46.727801781971,8.189542311609,1708.0,100.0,4.5,2014.0,True,False,False
4001148155,"['HOUSE', 'BIFAMILIAR_HOUSE']",Reinach,4153,47.492391781971,7.596142311605,3500.0,150.0,6.5,2014.0,True,False,True
4001148059,"['APARTMENT', 'DUPLEX']",Liestal,4410,47.482871781979,7.741322311609,2550.0,158.0,5.5,2002.0,True,True,True
4001148031,"['APARTMENT', 'ATTIC_FLAT']",Birr,5242,47.437921781979,8.208792311603,1580.0,70.0,3.5,1970.0,True,True,False
4001147973,"['APARTMENT', 'ROOF_FLAT']",Tenniken,4456,47.426871781975,7.803312311601,2630.0,180.0,5.5,2002.0,True,False,False
4001147946,"['APARTMENT', 'FLAT']",Luzern,6003,47.048451781975,8.292002311608,2859.0,104.0,4.5,2014.0,True,True,False
4001147883,"['HOUSE', 'SINGLE_HOUSE']",Nyon,1260,46.380501781977,6.229872311609,6450.0,180.0,5.0,2014.0,True,False,True
4001147879,"['APARTMENT', 'FLAT']",Niederrohrdorf,5443,47.426131781971,8.300402311602,1800.0,78.0,2.5,2016.0,True,True,False
4001147870,"['APARTMENT', 'FLAT']",Bern,3006,46.942391781971,7.463522311601,2700.0,82.0,3.5,2014.0,True,False,False
4001147833,"['APARTMENT', 'FLAT']",Sévery,1141,46.575591781979,6.438322311602,2200.0,130.0,3.5,2014.0,True,False,True
4001147573,"['APARTMENT', 'FLAT']",St. Gallen,9000,47.433831781976,9.403282311607,1290.0,64.0,3.5,2014.0,True,False,False
4001147570,"['APARTMENT', 'FLAT']",Solothurn,4500,47.207611781972,7.532082311605,1680.0,120.0,4.0,2014.0,True,True,True
4001147523,"['HOUSE', 'BIFAMILIAR_HOUSE']",Kerzers,3210,46.975161781975,7.211722311603,2850.0,155.0,4.5,1996.0,True,False,True
4001147520,"['APARTMENT', 'FLAT']",Collex-Bossy,1239,46.272381781971,6.127502311602,1870.0,58.0,3.0,1987.0,True,False,True
4001147517,['HOBBY_ROOM'],Basel,4053,47.538631781975,7.601752311609,480.0,23.0,1.0,2009.0,False,True,False
4001147184,"['APARTMENT', 'FLAT']",Grenchen,2540,47.187471781971,7.380292311604,910.0,50.0,2.0,2014.0,True,False,False
4001146959,"['APARTMENT', 'BACHELOR_FLAT']",Wettingen,5430,47.465951781973,8.326592311602,930.0,17.0,1.5,1971.0,False,False,True
4001146940,"['HOUSE', 'VILLA']",Farvagny-le-Grand,1726,46.719241781979,7.071072311609,2850.0,150.0,5.5,2014.0,True,False,True
4001146879,"['APARTMENT', 'ROOF_FLAT']",Schwarzenburg,3150,46.818221781971,7.344512311609,1700.0,155.0,4.0,1988.0,True,True,False
4001146790,"['APARTMENT', 'FLAT']",Fribourg,1700,46.810561781972,7.157802311604,1350.0,48.0,2.0,2014.0,True,True,False
4001146784,"['APARTMENT', 'STUDIO']",Chavannes-près-Renens,1022,46.527861781978,6.571822311608,1365.0,30.0,1.0,2014.0,True,True,True
4001146763,"['APARTMENT', 'DUPLEX']",Dällikon,8108,47.438711781971,8.434272311608,2918.0,130.0,4.5,2016.0,True,True,False
4001146762,"['APARTMENT', 'ROOF_FLAT']",Einigen,3646,46.709701781974,7.640092311602,1460.0,60.0,3.0,1963.0,True,False,False
4001146745,"['APARTMENT', 'FLAT']",Langenthal,4900,47.211471781975,7.781832311605,1790.0,93.0,4.5,2014.0,True,False,True
4001146718,"['APARTMENT', 'FLAT']",Studen BE,2557,47.111871781973,7.299942311608,830.0,46.0,2.5,1960.0,True,False,False
4001146693,"['APARTMENT', 'ROOF_FLAT']",Schüpfheim,6170,46.952771781971,8.017552311602,1600.0,120.0,5.5,2014.0,True,False,True
4001146683,"['APARTMENT', 'FLAT']",Bern,3007,46.936321781974,7.436122311603,2950.0,110.0,4.5,2014.0,True,False,False
4001146601,"['APARTMENT', 'FLAT']",Burgdorf,3400,47.062361781975,7.624362311607,1345.0,80.0,3.5,2014.0,False,False,False
4001146497,"['APARTMENT', 'FLAT']",Frauenfeld,8500,47.555701781973,8.891742311605,2090.0,100.0,4.0,2014.0,True,False,True
4001146491,"['APARTMENT', 'FLAT']",Galmiz,3285,46.948991781974,7.157852311606,1750.0,77.0,3.5,1995.0,True,False,False
4001146158,"['APARTMENT', 'ROOF_FLAT']",Blumenstein,3638,46.741091781975,7.520452311607,2040.0,148.0,4.5,1993.0,True,False,False
4001144187,"['APARTMENT', 'FLAT']",Bischofszell,9220,47.494011781978,9.248402311601,1570.0,102.0,3.5,2014.0,True,False,False
4001145876,"['APARTMENT', 'FLAT']",Horgen,8810,47.255251781977,8.613992311601,2097.0,91.0,4.0,1982.0,True,False,True
4001145393,"['APARTMENT', 'FLAT']",Jaberg,3629,46.817881781972,7.569552311602,1750.0,80.0,3.5,1994.0,True,False,False
4001144971,"['APARTMENT', 'FLAT']",Neuchâtel,2034,46.988431781977,6.896612311605,1930.0,97.0,3.5,2014.0,False,True,False
4001144892,"['APARTMENT', 'FLAT']",Thun,3600,46.756671781974,7.626102311604,1550.0,70.0,3.5,2014.0,False,False,False
4001144504,"['APARTMENT', 'FLAT']",Wil,9500,47.465451781972,9.048212311606,1390.0,54.0,1.5,2014.0,False,True,False
4001144527,"['APARTMENT', 'FLAT']",Wil,9500,47.465451781972,9.048212311606,1390.0,47.0,1.5,2014.0,False,True,False
4001144561,"['APARTMENT', 'FLAT']",Wil,9500,47.465451781972,9.048212311606,1490.0,52.0,1.5,2014.0,True,True,False
4000795123,"['APARTMENT', 'FLAT']",Altdorf,6460,46.876811781975,8.632112311602,1780.0,85.0,3.5,2024.0,True,True,True
4001144542,"['APARTMENT', 'ROOF_FLAT']",St. Gallen,9008,47.435731781971,9.387302311603,1190.0,55.0,3.5,1965.0,False,False,True
4001144526,"['APARTMENT', 'FLAT']",Binningen,4102,47.545191781973,7.563092311606,1840.0,72.0,2.5,2014.0,False,False,True
4001144525,"['APARTMENT', 'FLAT']",Studen,2557,47.117251781977,7.293442311601,1660.0,79.0,3.5,2021.0,True,False,False
4001020083,"['APARTMENT', 'FLAT']",Basel,4053,47.538171781979,7.600272311601,1300.0,50.0,2.0,1952.0,True,False,False
4001144438,"['APARTMENT', 'FLAT']",Gelterkinden,4460,47.460171781971,7.861742311604,1255.0,40.0,1.5,2024.0,False,True,False
4001144437,"['APARTMENT', 'FLAT']",Buchs,5033,47.392421781976,8.082242311602,1480.0,60.0,3.0,2014.0,True,False,True
4000793124,"['APARTMENT', 'FLAT']",Zürich,8005,47.387081781972,8.516112311606,4280.0,109.0,2.5,2015.0,False,True,False
4001094596,"['APARTMENT', 'ATTIC_FLAT']",Zürich,8037,47.392711781975,8.527182311604,4920.0,105.0,2.5,1907.0,True,True,True
4001144104,"['APARTMENT', 'FLAT']",La Tour-de-Peilz,1814,46.457211781978,6.869262311607,1840.0,56.0,3.5,2014.0,True,True,True
4001144074,"['APARTMENT', 'DUPLEX']",Siblingen,8225,47.714271781976,8.519942311606,1600.0,100.0,3.5,1960.0,True,False,True
4001144018,"['APARTMENT', 'ROOF_FLAT']",Wittenbach,9300,47.463661781974,9.379262311603,1000.0,50.0,2.0,1920.0,False,False,False
4001143948,"['APARTMENT', 'ROOF_FLAT']",Bern,3005,46.941551781972,7.447882311601,3415.0,114.0,3.5,1939.0,True,False,False
4001143785,"['APARTMENT', 'FLAT']",Bäretswil,8344,47.336881781972,8.866682311602,2800.0,135.0,5.5,1996.0,True,False,True
4001143773,"['APARTMENT', 'STUDIO']",Schmerikon,8716,47.228391781975,8.959592311602,790.0,20.0,1.0,2015.0,False,False,True
4001143672,"['APARTMENT', 'FLAT']",Starrkirch-Wil,4656,47.352301781971,7.925732311603,1370.0,75.0,3.5,2014.0,True,False,False
4001071112,"['APARTMENT', 'FLAT']",Solothurn,4500,47.204951781971,7.540522311601,1990.0,73.0,3.5,2014.0,False,True,False
4001071111,"['APARTMENT', 'DUPLEX']",Solothurn,4500,47.204951781971,7.540522311601,2050.0,100.0,4.0,2014.0,False,True,False
4001143223,"['APARTMENT', 'FLAT']",Münchenbuchsee,3053,47.020861781973,7.455722311607,1208.0,60.0,3.0,1969.0,True,False,False
4001143221,"['APARTMENT', 'FLAT']",Thun,3600,46.760091781977,7.628782311605,1420.0,75.0,3.0,1978.0,False,False,False
4001140059,"['APARTMENT', 'FLAT']",Moutier,2740,47.280611781977,7.369732311608,1200.0,125.0,4.0,2014.0,False,True,False
